time(millisecond),datetime(utc),latitude,longitude,height_above_takeoff(feet),height_above_ground_at_drone_location(feet),ground_elevation_at_drone_location(feet),altitude_above_seaLevel(feet),height_sonar(feet),speed(mph),distance(feet),satellites,gpslevel,voltage(v),max_altitude(feet),max_ascent(feet),max_speed(mph),max_distance(feet), xSpeed(mph), ySpeed(mph), zSpeed(mph), compass_heading(degrees), pitch(degrees), roll(degrees),isPhoto,isVideo,rc_elevator,rc_aileron,rc_throttle,rc_rudder,gimbal_heading(degrees),gimbal_pitch(degrees),battery_percent,voltageCell1,voltageCell2,voltageCell3,voltageCell4,voltageCell5,voltageCell6,current(A),battery_temperature(f),altitude(feet),ascent(feet),flycStateRaw,flycState,message
22500,2021-04-17 20:55:10,38.9261780956464,-76.6331663082768,0,Available with any HD 360 subscription,Available with any HD 360 subscription,125.00236456438,0,0,0,11,4,0,125.00236456438,0,0,0,0,0,0,272.1, 1, 1.6,0,0,1024,1024,1024,1024,274.1,0,98,4.263,4.264,4.265,4.263,0,0,0,78.71,125.00236456438,0,32,GPSNovice,GEO: You are in a Warning Zone (Unpaved Airports). Fly with caution.
22600,2021-04-17 20:55:11,38.9261780939843,-76.6331663076055,0,,,125.00236456438,0,0,0.00063563978412,11,4,0,125.00236456438,0,0,0.00063563978412,0,0,0,272.1, 1, 1.6,0,0,1024,1024,1024,1024,273.5,0,98,4.263,4.264,4.265,4.263,0,0,0,78.71,125.00236456438,0,32,GPSNovice,
22700,2021-04-17 20:55:11,38.9261778927378,-76.6331666042363,0,,,125.00236456438,0,0,0.11197014794,11,4,0,125.00236456438,0,0,0.11197014794,0,0,0,272.2, 1, 1.6,0,0,1024,1024,1024,1024,273.2,0,98,4.263,4.264,4.265,4.263,0,0,0,78.71,125.00236456438,0,32,GPSNovice,
22800,2021-04-17 20:55:11,38.926177891463,-76.6331666016499,0,,,125.00236456438,0,0,0.111729990452,11,4,0,125.00236456438,0,0,0.11197014794,0,0,0,272.1, 1, 1.6,0,0,1024,1024,1024,1024,273,0,98,4.263,4.264,4.265,4.263,0,0,0,78.71,125.00236456438,0,32,GPSNovice,
22900,2021-04-17 20:55:11,38.9261776906502,-76.633166703625,0,,,125.00236456438,0,0,0.185542000688,11,4,0,125.00236456438,0,0,0.185542000688,0,0,0,272.1, 1, 1.6,0,0,1024,1024,1024,1024,272.9,0,98,4.263,4.264,4.265,4.263,0,0,0,78.71,125.00236456438,0,32,GPSNovice,
23000,2021-04-17 20:55:11,38.9261776916317,-76.633166706809,0,,,125.00236456438,0,0,0.185805780224,11,4,0,125.00236456438,0,0,0.185805780224,0,0,0,272.1, 1, 1.6,0,0,1024,1024,1024,1024,272.8,0,98,4.263,4.264,4.265,4.263,0,0,0,78.71,125.00236456438,0,32,GPSNovice,
23100,2021-04-17 20:55:11,38.9261774924687,-76.6331668071446,0,,,125.00236456438,0,0,0.261687016248,11,4,0,125.00236456438,0,0,0.261687016248,0,0,0,272.1, 1, 1.6,0,0,1024,1024,1024,1024,272.7,0,98,4.263,4.264,4.265,4.263,0,0,0,78.71,125.00236456438,0,32,GPSNovice,
23200,2021-04-17 20:55:11,38.9261774925809,-76.6331668067317,0,,,125.00236456438,0,0,0.261589247216,11,4,17.03,125.00236456438,0,0,0.261687016248,0,0,0,272.1, 1, 1.6,0,0,1024,1024,1028,1024,272.7,0,98,4.263,4.264,4.265,4.263,0,0,1.092,78.71,125.00236456438,0,32,GPSNovice,Setting new Return-To-Home altitude to 30m (98 ft). Data Recorder File Index is 15. Setting new Maximum Flight Altitude to 30m (98 ft)
23300,2021-04-17 20:55:11,38.9261771927049,-76.6331670060006,0,,,125.00236456438,0,0,0.38437993356,11,4,17.03,125.00236456438,0,0,0.38437993356,0,0,0,272.1, 1, 1.6,0,0,1024,1024,1028,1024,272.6,0,98,4.263,4.264,4.265,4.263,0,0,1.092,78.71,125.00236456438,0,32,GPSNovice,
23400,2021-04-17 20:55:11,38.9261771924852,-76.6331670051375,0,,,125.00236456438,0,0,0.38432415928,11,4,17.03,125.00236456438,0,0,0.38437993356,0,0,0,272.1, 1, 1.6,0,0,1024,1024,1028,1024,272.6,0,98,4.263,4.264,4.265,4.263,0,0,1.092,78.71,125.00236456438,0,32,GPSNovice,
23500,2021-04-17 20:55:11,38.9261770922555,-76.6331673026295,0,,,125.00236456438,0,0,0.46225067096,11,4,17.03,125.00236456438,0,0,0.46225067096,0,0,0,272.1, 1, 1.6,0,0,1024,1024,1028,1024,272.6,0,98,4.263,4.264,4.265,4.263,0,0,1.092,78.71,125.00236456438,0,32,GPSNovice,
23600,2021-04-17 20:55:12,38.9261770924487,-76.6331673052132,0,,,125.00236456438,0,0,0.46264109092,11,4,17.03,125.00236456438,0,0,0.46264109092,0,0,0,272.1, 1, 1.6,0,0,1024,1024,1028,1024,272.6,0,98,4.263,4.264,4.265,4.263,0,0,1.092,78.71,125.00236456438,0,32,GPSNovice,
23700,2021-04-17 20:55:12,38.9261768930744,-76.6331675104438,0,,,125.00236456438,0,0,0.5558235086,11,4,17.03,125.00236456438,0,0,0.5558235086,0,0,0,272.1, 1, 1.6,0,0,1024,1024,1028,1024,272.5,0,98,4.263,4.264,4.265,4.263,0,0,1.092,78.71,125.00236456438,0,32,GPSNovice,
23800,2021-04-17 20:55:12,38.926176893498,-76.6331675111259,0,,,125.00236456438,0,0,0.55582022776,11,4,17.03,125.00236456438,0,0,0.5558235086,0,0,0,272.1, 1.1, 1.6,0,0,1024,1024,1028,1024,272.5,0,98,4.263,4.264,4.265,4.263,0,0,1.092,78.71,125.00236456438,0,32,GPSNovice,
23900,2021-04-17 20:55:12,38.9261768924484,-76.6331675080498,0,,,125.00236456438,0,0,0.55558728812,10,4,17.03,125.00236456438,0,0,0.5558235086,0,0,0,272.1, 1.1, 1.6,0,0,1024,1024,1028,1024,272.5,0,98,4.263,4.264,4.265,4.263,0,0,1.092,78.71,125.00236456438,0,32,GPSNovice,
24000,2021-04-17 20:55:12,38.9261768918881,-76.6331675019232,0,,,125.00236456438,0,0,0.55468505712,10,4,17.03,125.00236456438,0,0,0.5558235086,0,0,0,272.1, 1.2, 1.6,0,0,1024,1024,1028,1024,272.5,0,98,4.263,4.264,4.265,4.263,0,0,1.092,78.71,125.00236456438,0,32,GPSNovice,
24100,2021-04-17 20:55:12,38.9261767914776,-76.6331675004696,0,,,125.00236456438,0,0,0.58388125228,10,4,17.03,125.00236456438,0,0,0.58388125228,0,0,0,272.1, 1.1, 1.6,0,0,1024,1024,1028,1024,272.5,0,98,4.263,4.264,4.265,4.263,0,0,1.092,78.71,125.00236456438,0,32,GPSNovice,
24200,2021-04-17 20:55:12,38.9261767926658,-76.6331675094398,0,,,125.00236456438,0,0,0.5850065804,10,4,17.003,125.00236456438,0,0,0.5850065804,0,0,0,272.1, 1.1, 1.6,0,0,1024,1024,1028,1024,272.5,0,98,4.263,4.264,4.265,4.263,0,0,2.426,78.71,125.00236456438,0,32,GPSNovice,
24300,2021-04-17 20:55:12,38.9261766940667,-76.6331674160023,0,,,125.00236456438,0,0,0.60029201396,10,4,17.003,125.00236456438,0,0,0.60029201396,0,0,0,272.1, 1.1, 1.6,0,0,1024,1024,1028,1024,272.5,0,98,4.263,4.264,4.265,4.263,0,0,2.426,78.71,125.00236456438,0,32,GPSNovice,
24400,2021-04-17 20:55:12,38.9261766945338,-76.6331674144508,0,,,125.00236456438,0,0,0.59991471736,10,4,17.003,125.00236456438,0,0,0.60029201396,0,0,0,272.2, 1.2, 1.6,0,0,1024,1024,1028,1024,272.5,0,98,4.263,4.264,4.265,4.263,0,0,2.426,78.71,125.00236456438,0,32,GPSNovice,
24500,2021-04-17 20:55:12,38.9261765939374,-76.6331674091789,0,,,125.00236456438,0,0,0.63074149,10,4,17.003,125.00236456438,0,0,0.63074149,0,0,0,272.1, 1.1, 1.6,0,0,1024,1024,1028,1024,272.4,0,98,4.263,4.264,4.265,4.263,0,0,2.426,78.71,125.00236456438,0,10,Assisted_Takeoff,
24600,2021-04-17 20:55:12,38.9261765921882,-76.6331674105878,0,,,125.00236456438,0,0,0.63149280236,10,4,17.003,125.00236456438,0,0,0.63149280236,0,0,0,272.1, 1, 1.5,0,0,1024,1024,1028,1024,272.4,0,98,4.263,4.264,4.265,4.263,0,0,2.426,78.71,125.00236456438,0,10,Assisted_Takeoff,
24700,2021-04-17 20:55:13,38.9261765907664,-76.6331673117411,0,,,125.00236456438,0,0,0.61853348436,10,4,17.003,125.00236456438,0,0,0.63149280236,0,0,0,272.1, 1, 1.5,0,0,1024,1024,1028,1024,272.4,0,98,4.263,4.264,4.265,4.263,0,0,2.426,78.71,125.00236456438,0,10,Assisted_Takeoff,
24800,2021-04-17 20:55:13,38.9261765910915,-76.6331673114932,0,,,125.00236456438,0,0,0.61839568908,10,4,17.003,125.00236456438,0,0,0.63149280236,0,0,0,272.1, 1, 1.5,0,0,1024,1024,1028,1024,272.4,0,98,4.263,4.264,4.265,4.263,0,0,2.426,78.71,125.00236456438,0,10,Assisted_Takeoff,
24900,2021-04-17 20:55:13,38.9261764921073,-76.6331673108739,0,,,125.00236456438,0,0,0.650590572,10,4,17.003,125.00236456438,0,0,0.650590572,0,0,0,272.1, 1, 1.5,0,0,1024,1024,1028,1024,272.4,0,98,4.263,4.264,4.265,4.263,0,0,2.426,78.71,125.00236456438,0,10,Assisted_Takeoff,
25000,2021-04-17 20:55:13,38.9261764915815,-76.6331673083496,0,,,125.00236456438,0,0,0.65044949588,10,4,17.003,125.00236456438,0,0,0.650590572,0,0,0,272.1, 1, 1.5,0,0,1024,1024,1028,1024,272.4,0,98,4.263,4.264,4.265,4.263,0,0,2.426,78.71,125.00236456438,0,10,Assisted_Takeoff,
25100,2021-04-17 20:55:13,38.9261763895698,-76.6331672051986,0,,,125.00236456438,0,0,0.67250986404,10,4,17.003,125.00236456438,0,0,0.67250986404,0,0,0,272.1, 1, 1.5,0,0,1024,1024,1028,1024,272.4,0,98,4.263,4.264,4.265,4.263,0,0,2.426,78.71,125.00236456438,0,10,Assisted_Takeoff,
25200,2021-04-17 20:55:13,38.9261763889095,-76.6331672060138,0,,,125.00236456438,0,0,0.672818263,10,4,17.003,125.00236456438,0,0,0.672818263,0,0,0,272.1, 1, 1.5,0,0,1024,1024,1028,1024,272.4,0,98,4.263,4.264,4.265,4.263,0,0,2.426,78.71,125.00236456438,0,10,Assisted_Takeoff,
25300,2021-04-17 20:55:13,38.9261762902557,-76.6331671065366,0,,,125.00236456438,0,0,0.69657482544,10,4,17.003,125.00236456438,0,0,0.69657482544,0,0,0,272.1, 1, 1.5,0,0,1024,1024,1028,1024,272.4,0,98,4.263,4.264,4.265,4.263,0,0,2.426,78.71,125.00236456438,0,10,Assisted_Takeoff,
25400,2021-04-17 20:55:13,38.926176291437,-76.6331671082236,0,,,125.00236456438,0,0,0.69632220076,10,4,17.003,125.00236456438,0,0,0.69657482544,0,0,0,272.1, 1, 1.5,0,0,1024,1024,1028,1024,272.4,0,98,4.263,4.264,4.265,4.263,0,0,2.426,78.71,125.00236456438,0,10,Assisted_Takeoff,
25500,2021-04-17 20:55:13,38.926176090784,-76.6331669086263,0,,,125.00236456438,0,0,0.75105973532,10,4,17.003,125.00236456438,0,0,0.75105973532,0,0,0,272.1, 1, 1.5,0,0,1024,1024,1028,1024,272.4,0,98,4.263,4.264,4.265,4.263,0,0,2.426,78.71,125.00236456438,0,10,Assisted_Takeoff,
25600,2021-04-17 20:55:14,38.9261760901562,-76.6331669076925,0,,,125.00236456438,0,0,0.75122049648,10,4,17.003,125.00236456438,0,0,0.75122049648,0,0,0,272.1, 1, 1.5,0,0,1024,1024,1028,1024,272.4,0,98,4.263,4.264,4.265,4.263,0,0,2.426,78.71,125.00236456438,0,10,Assisted_Takeoff,
25700,2021-04-17 20:55:14,38.9261758899411,-76.6331668086899,0,,,125.00236456438,0,0,0.81718834636,10,4,17.003,125.00236456438,0,0,0.81718834636,0,0,0,272.1, 1, 1.5,0,0,1024,1024,1028,1024,272.4,0,98,4.263,4.264,4.265,4.263,0,0,2.426,78.71,125.00236456438,0,10,Assisted_Takeoff,
25800,2021-04-17 20:55:14,38.9261758908842,-76.6331668111187,0,,,125.00236456438,0,0,0.81696853008,10,4,17.003,125.00236456438,0,0,0.81718834636,0,0,0,272.1, 1, 1.5,0,0,1024,1024,1028,1024,272.4,0,98,4.263,4.264,4.265,4.263,0,0,2.426,78.71,125.00236456438,0,10,Assisted_Takeoff,
25900,2021-04-17 20:55:14,38.9261757897459,-76.6331667114509,0,,,125.00236456438,0,0,0.84905514528,10,4,17.003,125.00236456438,0,0,0.84905514528,0,0,0,272.1, 1, 1.5,0,0,1024,1024,1028,1024,272.4,0,98,4.263,4.264,4.265,4.263,0,0,2.426,78.71,125.00236456438,0,10,Assisted_Takeoff,
26000,2021-04-17 20:55:14,38.9261757894472,-76.6331667108392,0,,,125.00236456438,0,0,0.84913716628,10,4,17.003,125.00236456438,0,0,0.84913716628,0,0,0,272.1, 1, 1.5,0,0,1024,1024,1028,1024,272.4,0,98,4.263,4.264,4.265,4.263,0,0,2.426,78.71,125.00236456438,0,10,Assisted_Takeoff,
26100,2021-04-17 20:55:14,38.9261755903781,-76.633166610155,0,,,125.00236456438,0,0,0.91805449132,10,4,17.003,125.00236456438,0,0,0.91805449132,0,0,0,272.1, 1, 1.5,0,0,1024,1024,1028,1024,272.4,0,98,4.263,4.264,4.265,4.263,0,0,2.426,78.71,125.00236456438,0,10,Assisted_Takeoff,
26200,2021-04-17 20:55:14,38.9261755918702,-76.6331666120955,0,,,125.00236456438,0,0,0.91756236532,10,4,16.977,125.00236456438,0,0,0.91805449132,0,0,0,272.1, 1, 1.5,0,0,1024,1024,1028,1024,272.4,0,98,4.222,4.222,4.223,4.254,0,0,2.426,78.71,125.00236456438,0,10,Assisted_Takeoff,
26300,2021-04-17 20:55:14,38.9261754931507,-76.6331664147442,0,,,125.00236456438,0,0,0.9500000304,10,4,16.977,125.00236456438,0,0,0.9500000304,0,0,0,272.1, 1, 1.5,0,0,1024,1024,1028,1024,272.4,0,98,4.222,4.222,4.223,4.254,0,0,2.426,78.71,125.00236456438,0,10,Assisted_Takeoff,
26400,2021-04-17 20:55:14,38.9261754929244,-76.6331664140499,0,,,125.00236456438,0,0,0.95007548972,10,4,16.977,125.00236456438,0,0,0.95007548972,0,0,0,272.1, 1, 1.5,0,0,1024,1024,1028,1024,272.4,0,98,4.222,4.222,4.223,4.254,0,0,2.426,78.71,125.00236456438,0,10,Assisted_Takeoff,
26500,2021-04-17 20:55:14,38.9261752930252,-76.6331662114384,0,,,125.00236456438,0,0,1.02290357604,10,4,16.977,125.00236456438,0,0,1.02290357604,0,0,0,272.1, 1, 1.5,0,0,1024,1024,1028,1024,272.4,0,98,4.222,4.222,4.223,4.254,0,0,2.426,78.71,125.00236456438,0,10,Assisted_Takeoff,
26600,2021-04-17 20:55:15,38.9261752921072,-76.6331662110839,0,,,125.00236456438,0,0,1.02324150256,10,4,16.977,125.00236456438,0,0,1.02324150256,0,0,0,272.1, 1, 1.5,0,0,1024,1024,1028,1024,272.4,0,98,4.222,4.222,4.223,4.254,0,0,2.426,78.71,125.00236456438,0,10,Assisted_Takeoff,
26700,2021-04-17 20:55:15,38.9261751906364,-76.6331660084822,0,,,125.00236456438,0,0,1.06330055896,10,4,16.977,125.00236456438,0,0,1.06330055896,0,0,0,272.1, 1, 1.5,0,0,1024,1024,1028,1024,272.4,0,98,4.222,4.222,4.223,4.254,0,0,2.426,78.71,125.00236456438,0,10,Assisted_Takeoff,
26800,2021-04-17 20:55:15,38.9261751903968,-76.6331660077277,0,,,125.00236456438,0,0,1.06340554584,10,4,16.977,125.00236456438,0,0,1.06340554584,0,0,0,272.1, 1, 1.5,0,0,1024,1024,1028,1024,272.4,0,98,4.222,4.222,4.223,4.254,0,0,2.426,78.71,125.00236456438,0,10,Assisted_Takeoff,
26900,2021-04-17 20:55:15,38.9261749905313,-76.6331659098063,0,,,125.00236456438,0,0,1.13853022016,10,4,16.977,125.00236456438,0,0,1.13853022016,0,0,0,272.2, 1, 1.5,0,0,1024,1024,1028,1024,272.4,0,98,4.222,4.222,4.223,4.254,0,0,2.426,78.71,125.00236456438,0,10,Assisted_Takeoff,
27000,2021-04-17 20:55:15,38.9261749903866,-76.6331659105192,0,,,125.00236456438,0,0,1.13856302856,10,4,16.977,125.00236456438,0,0,1.13856302856,0,0,0,272.2, 1, 1.5,0,0,1024,1024,1028,1024,272.4,0,98,4.222,4.222,4.223,4.254,0,0,2.426,78.71,125.00236456438,0,10,Assisted_Takeoff,
27100,2021-04-17 20:55:15,38.9261748898578,-76.6331657110328,0,,,125.00236456438,0,0,1.18185043152,10,4,16.977,125.00236456438,0,0,1.18185043152,0,0,0,272.2, 1, 1.5,0,0,1024,1024,1028,1024,272.4,0,98,4.222,4.222,4.223,4.254,0,0,2.426,78.71,125.00236456438,0,10,Assisted_Takeoff,
27200,2021-04-17 20:55:15,38.9261748899316,-76.6331657101469,0,,,125.00236456438,0,0,1.18186027404,10,4,16.924,125.00236456438,0,0,1.18186027404,0,0,0,272.2, 1, 1.5,0,0,1024,1024,1028,1024,272.4,0,98,4.235,4.239,4.24,4.237,0,0,2.528,78.71,125.00236456438,0,10,Assisted_Takeoff,
27300,2021-04-17 20:55:15,38.9261747898875,-76.6331654120822,0,,,125.00236456438,0,0,1.23263783472,10,4,16.924,125.00236456438,0,0,1.23263783472,0,0,0,272.2, 1, 1.5,0,0,1024,1024,1028,1024,272.4,0,98,4.235,4.239,4.24,4.237,0,0,2.528,78.71,125.00236456438,0,10,Assisted_Takeoff,
27400,2021-04-17 20:55:15,38.9261747905641,-76.6331654161735,0,,,125.00236456438,0,0,1.23215555124,10,4,16.924,125.00236456438,0,0,1.23263783472,0,0,0,272.2, 1, 1.5,0,0,1024,1024,1028,1024,272.4,0,98,4.235,4.239,4.24,4.237,0,0,2.528,78.71,125.00236456438,0,10,Assisted_Takeoff,
27500,2021-04-17 20:55:15,38.9261745913198,-76.6331653197818,0,,,125.00236456438,0,0,1.308973139,10,4,16.924,125.00236456438,0,0,1.308973139,0,0,0,272.2, 1, 1.5,0,0,1024,1024,1028,1024,272.4,0,98,4.235,4.239,4.24,4.237,0,0,2.528,78.71,125.00236456438,0,10,Assisted_Takeoff,
27600,2021-04-17 20:55:15,38.9261745896128,-76.6331653153239,0,,,125.00236456438,0,0,1.30985568496,10,4,16.924,125.00236456438,0,0,1.30985568496,0,0,0,272.2, 1, 1.5,0,0,1024,1024,1028,1024,272.4,0,98,4.235,4.239,4.24,4.237,0,0,2.528,78.71,125.00236456438,0,10,Assisted_Takeoff,
27700,2021-04-17 20:55:16,38.9261744880346,-76.6331651102707,0,,,125.00236456438,0,0,1.3594488624,10,4,16.924,125.00236456438,0,0,1.3594488624,0,0,0,272.2, 1, 1.5,0,0,1024,1024,1028,1024,272.4,0,98,4.235,4.239,4.24,4.237,0,0,2.528,78.71,125.00236456438,0,10,Assisted_Takeoff,
27800,2021-04-17 20:55:16,38.9261744887262,-76.6331651125301,0,,,125.00236456438,0,0,1.35904531908,10,4,16.924,125.00236456438,0,0,1.3594488624,0,0,0,272.2, 1, 1.5,0,0,1024,1024,1028,1024,272.4,0,98,4.235,4.239,4.24,4.237,0,0,2.528,78.71,125.00236456438,0,10,Assisted_Takeoff,
27900,2021-04-17 20:55:16,38.9261743910371,-76.6331649154986,0,,,125.00236456438,0,0,1.4082513574,10,4,16.924,125.00236456438,0,0,1.4082513574,0,0,0,272.2, 1, 1.5,0,0,1024,1024,1028,1024,272.4,0,98,4.235,4.239,4.24,4.237,0,0,2.528,78.71,125.00236456438,0,10,Assisted_Takeoff,
28000,2021-04-17 20:55:16,38.9261743901447,-76.6331649156466,0,,,125.00236456438,0,0,1.40854991384,10,4,16.924,125.00236456438,0,0,1.40854991384,0,0,0,272.2, 1, 1.5,0,0,1024,1024,1028,1024,272.4,0,98,4.235,4.239,4.24,4.237,0,0,2.528,78.71,125.00236456438,0,10,Assisted_Takeoff,
28100,2021-04-17 20:55:16,38.9261742887331,-76.6331648136088,0,,,125.00236456438,0,0,1.4522966344,10,4,16.924,125.00236456438,0,0,1.4522966344,0,0,0,272.2, 1, 1.5,0,0,1024,1024,1028,1024,272.4,0,98,4.235,4.239,4.24,4.237,0,0,2.528,78.71,125.00236456438,0,10,Assisted_Takeoff,
28200,2021-04-17 20:55:16,38.9261742886375,-76.6331648128966,0,,,125.00236456438,0,0,1.45238849792,10,4,16.897,125.00236456438,0,0,1.45238849792,0,0,0,272.2, 1, 1.5,0,0,1024,1024,1028,1024,272.4,0,98,4.228,4.23,4.232,4.228,0,0,3.396,78.71,125.00236456438,0,10,Assisted_Takeoff,
28300,2021-04-17 20:55:16,38.9261740885814,-76.6331646150416,0,,,125.00236456438,0,0,1.5389436188,10,4,16.897,125.00236456438,0,0,1.5389436188,0,0,0,272.2, 1, 1.5,0,0,1024,1024,1028,1024,272.4,0,98,4.228,4.23,4.232,4.228,0,0,3.396,78.71,125.00236456438,0,10,Assisted_Takeoff,
28400,2021-04-17 20:55:16,38.9261740892785,-76.6331646152625,0,,,125.00236456438,0,0,1.53868443244,10,4,16.897,125.00236456438,0,0,1.5389436188,0,0,0,272.2, 1, 1.5,0,0,1024,1024,1028,1024,272.4,0,98,4.228,4.23,4.232,4.228,0,0,3.396,78.71,125.00236456438,0,10,Assisted_Takeoff,
28500,2021-04-17 20:55:16,38.9261739890222,-76.6331643171888,0,,,125.00236456438,0,0,1.60133863392,10,4,16.897,125.00236456438,0,0,1.60133863392,0,0,0,272.2, 1, 1.5,0,0,1024,1024,1028,1024,272.4,0,98,4.228,4.23,4.232,4.228,0,0,3.396,78.71,125.00236456438,0,10,Assisted_Takeoff,
28600,2021-04-17 20:55:16,38.9261739878581,-76.6331643137186,0,,,125.00236456438,0,0,1.6020833846,10,4,16.897,125.00236456438,0,0,1.6020833846,0,0,0,272.2, 0.9, 1.5,0,0,1024,1024,1028,1024,272.4,0,98,4.228,4.23,4.232,4.228,0,0,3.396,78.71,125.00236456438,0,10,Assisted_Takeoff,
28700,2021-04-17 20:55:17,38.9261738868362,-76.6331641128027,0,,,125.00236456438,0,0,1.65720805828,10,4,16.897,125.00236456438,0,0,1.65720805828,0,0,0,272.2, 1, 1.5,0,0,1024,1024,1028,1024,272.4,0,98,4.228,4.23,4.232,4.228,0,0,3.396,78.71,125.00236456438,0,10,Assisted_Takeoff,
28800,2021-04-17 20:55:17,38.9261738867113,-76.6331641120663,0,,,125.00236456438,0,0,1.65732944936,10,4,16.897,125.00236456438,0,0,1.65732944936,0,0,0,272.2, 1, 1.5,0,0,1024,1024,1028,1024,272.4,0,98,4.228,4.23,4.232,4.228,0,0,3.396,78.71,125.00236456438,0,10,Assisted_Takeoff,
28900,2021-04-17 20:55:17,38.9261737884604,-76.6331640165442,0,,,125.00236456438,0,0,1.70078089432,10,4,16.897,125.00236456438,0,0,1.70078089432,0,0,0,272.2, 0.9, 1.5,0,0,1024,1024,1028,1024,272.4,0,98,4.228,4.23,4.232,4.228,0,0,3.396,78.71,125.00236456438,0,10,Assisted_Takeoff,
29000,2021-04-17 20:55:17,38.9261737893301,-76.6331640230783,0,,,125.00236456438,0,0,1.69977695728,10,4,16.897,125.00236456438,0,0,1.70078089432,0,0,0,272.2, 0.9, 1.5,0,0,1024,1024,1028,1024,272.4,0,98,4.228,4.23,4.232,4.228,0,0,3.396,78.71,125.00236456438,0,10,Assisted_Takeoff,
29100,2021-04-17 20:55:17,38.9261736909956,-76.6331637261789,0,,,125.00236456438,0,0,1.76626646072,10,4,16.897,125.00236456438,0,0,1.76626646072,0,0,0,272.2, 0.9, 1.5,0,0,1024,1024,1028,1024,272.4,0,98,4.228,4.23,4.232,4.228,0,0,3.396,78.71,125.00236456438,0,10,Assisted_Takeoff,
29200,2021-04-17 20:55:17,38.9261736893022,-76.633163723811,0,,,125.00236456438,0,0,1.76710635576,10,4,16.87,125.00236456438,0,0,1.76710635576,0,0,0,272.2, 0.9, 1.5,0,0,1024,1024,1028,1024,272.4,0,98,4.228,4.23,4.232,4.228,0,0,3.45,78.71,125.00236456438,0,10,Assisted_Takeoff,
29300,2021-04-17 20:55:17,38.9261735893283,-76.6331635183505,0,,,125.00236456438,0,0,1.82489179068,10,4,16.87,125.00236456438,0,0,1.82489179068,0,0,0,272.2, 0.9, 1.5,0,0,1024,1024,1028,1024,272.4,0,98,4.228,4.23,4.232,4.228,0,0,3.45,78.71,125.00236456438,0,10,Assisted_Takeoff,
29400,2021-04-17 20:55:17,38.9261735899052,-76.6331635194643,0,,,125.00236456438,0,0,1.82456698752,10,4,16.87,125.00236456438,0,0,1.82489179068,0,0,0,272.2, 0.9, 1.5,0,0,1024,1024,1028,1024,272.4,0,98,4.228,4.23,4.232,4.228,0,0,3.45,78.71,125.00236456438,0,10,Assisted_Takeoff,
29500,2021-04-17 20:55:17,38.9261734901783,-76.6331632176225,0,,,125.00236456438,0,0,1.89551187168,10,4,16.87,125.00236456438,0,0,1.89551187168,0,0,0,272.1, 0.9, 1.5,0,0,1024,1024,1028,1024,272.4,0,98,4.228,4.23,4.232,4.228,0,0,3.45,78.71,125.00236456438,0,10,Assisted_Takeoff,
29600,2021-04-17 20:55:18,38.9261734910516,-76.633163217677,0,,,125.00236456438,0,0,1.89522315776,10,4,16.87,125.00236456438,0,0,1.89551187168,0,0,0,272.2, 0.9, 1.5,0,0,1024,1024,1028,1024,272.4,0,98,4.228,4.23,4.232,4.228,0,0,3.45,78.71,125.00236456438,0,10,Assisted_Takeoff,
29700,2021-04-17 20:55:18,38.9261733893527,-76.6331631171356,0,,,125.00236456438,0,0,1.9413386448,10,4,16.87,125.00236456438,0,0,1.9413386448,0,0,0,272.2, 0.9, 1.5,0,0,1024,1024,1028,1024,272.4,0,98,4.228,4.23,4.232,4.228,0,0,3.45,78.71,125.00236456438,0,10,Assisted_Takeoff,
29800,2021-04-17 20:55:18,38.9261733890032,-76.6331631147232,0,,,125.00236456438,0,0,1.94177171568,10,4,16.87,125.00236456438,0,0,1.94177171568,0,0,0,272.2, 0.9, 1.5,0,0,1024,1024,1028,1024,272.4,0,98,4.228,4.23,4.232,4.228,0,0,3.45,78.71,125.00236456438,0,10,Assisted_Takeoff,
29900,2021-04-17 20:55:18,38.9261732898147,-76.6331629175017,0,,,125.00236456438,0,0,2.00017394852,10,4,16.87,125.00236456438,0,0,2.00017394852,0,0,0,272.2, 0.9, 1.5,0,0,1024,1024,1028,1024,272.4,0,98,4.228,4.23,4.232,4.228,0,0,3.45,78.71,125.00236456438,0,10,Assisted_Takeoff,
30000,2021-04-17 20:55:18,38.9261732913095,-76.6331629192504,0,,,125.00236456438,0,0,1.99945544456,10,4,16.87,125.00236456438,0,0,2.00017394852,0,0,0,272.2, 0.9, 1.5,0,0,1024,1024,1028,1024,272.4,0,98,4.228,4.23,4.232,4.228,0,0,3.45,78.71,125.00236456438,0,10,Assisted_Takeoff,
30100,2021-04-17 20:55:18,38.9261731909996,-76.6331627216106,0,,,125.00236456438,0,0,2.05876975092,10,4,16.87,125.00236456438,0,0,2.05876975092,0,0,0,272.2, 0.9, 1.5,0,0,1024,1024,1028,1024,272.3,0,98,4.228,4.23,4.232,4.228,0,0,3.45,78.71,125.00236456438,0,10,Assisted_Takeoff,
30200,2021-04-17 20:55:18,38.9261731910155,-76.6331627220049,0,,,125.00236456438,0,0,2.0587106958,10,4,16.897,125.00236456438,0,0,2.05876975092,0,0,0,272.2, 0.9, 1.5,0,0,1024,1024,1028,1024,272.4,0,98,4.227,4.228,4.229,4.226,0,0,3.45,78.71,125.00236456438,0,10,Assisted_Takeoff,
30300,2021-04-17 20:55:18,38.926173191231,-76.6331625209576,0,,,125.00236456438,0,0,2.08744757336,10,4,16.897,125.00236456438,0,0,2.08744757336,0,0,0,272.2, 0.9, 1.5,0,0,1024,1024,1028,1024,272.4,0,98,4.227,4.228,4.229,4.226,0,0,3.45,78.71,125.00236456438,0,10,Assisted_Takeoff,
30400,2021-04-17 20:55:18,38.9261731906599,-76.6331625211517,0,,,125.00236456438,0,0,2.087598492,10,4,16.897,125.00236456438,0,0,2.087598492,0,0,0,272.2, 0.9, 1.5,0,0,1024,1024,1028,1024,272.3,0,98,4.227,4.228,4.229,4.226,0,0,3.45,78.71,125.00236456438,0,10,Assisted_Takeoff,
30500,2021-04-17 20:55:18,38.926173089154,-76.633162316061,0,,,125.00236456438,0,0,2.1495407512,10,4,16.897,125.00236456438,0,0,2.1495407512,0,0,0,272.2, 0.9, 1.5,0,0,1024,1024,1028,1024,272.3,0,98,4.227,4.228,4.229,4.226,0,0,3.45,78.71,125.00236456438,0,10,Assisted_Takeoff,
30600,2021-04-17 20:55:19,38.9261730887624,-76.6331623162481,0,,,125.00236456438,0,0,2.14963589556,10,4,16.897,125.00236456438,0,0,2.14963589556,0,0,0,272.2, 0.9, 1.5,0,0,1024,1024,1028,1024,272.4,0,98,4.227,4.228,4.229,4.226,0,0,3.45,78.71,125.00236456438,0,10,Assisted_Takeoff,
30700,2021-04-17 20:55:19,38.9261730902911,-76.6331622168279,0,,,125.00236456438,0,0,2.16417001676,10,4,16.897,125.00236456438,0,0,2.16417001676,0,0,0,272.2, 0.9, 1.5,0,0,1024,1024,1028,1024,272.3,0,98,4.227,4.228,4.229,4.226,0,0,3.45,78.71,125.00236456438,0,10,Assisted_Takeoff,
30800,2021-04-17 20:55:19,38.926173090682,-76.6331622209148,0,,,125.00236456438,0,0,2.16342854692,10,4,16.897,125.00236456438,0,0,2.16417001676,0,0,0,272.2, 0.9, 1.5,0,0,1024,1024,1028,1024,272.4,0,98,4.227,4.228,4.229,4.226,0,0,3.45,78.71,125.00236456438,0,10,Assisted_Takeoff,
30900,2021-04-17 20:55:19,38.9261730916289,-76.6331620227471,0,,,125.00236456438,0,0,2.19381896784,10,4,16.897,125.00236456438,0,0,2.19381896784,0,0,0,272.2, 0.9, 1.5,0,0,1024,1024,1028,1024,272.3,0,98,4.227,4.228,4.229,4.226,0,0,3.45,78.71,125.00236456438,0,10,Assisted_Takeoff,
31000,2021-04-17 20:55:19,38.9261730901952,-76.633162022892,0,,,125.00236456438,0,0,2.19422907284,10,4,16.897,125.00236456438,0,0,2.19422907284,0,0,0,272.2, 0.9, 1.5,0,0,1024,1024,1127,1024,272.3,0,98,4.227,4.228,4.229,4.226,0,0,3.45,78.71,125.00236456438,0,10,Assisted_Takeoff,
31100,2021-04-17 20:55:19,38.9261729891583,-76.6331618238996,0,,,125.00236456438,0,0,2.25637802496,10,4,16.897,125.00236456438,0,0,2.25637802496,0,0,0,272.2, 0.9, 1.5,0,0,1024,1024,1650,1020,272.3,0,98,4.227,4.228,4.229,4.226,0,0,3.45,78.71,125.00236456438,0,10,Assisted_Takeoff,
31200,2021-04-17 20:55:19,38.9261729892235,-76.633161819577,0,,,125.00236456438,0,0,2.25705059716,10,4,16.87,125.00236456438,0,0,2.25705059716,0,0,0,272.2, 0.9, 1.5,0,0,1024,1024,1684,1310,272.3,0,98,4.225,4.227,4.229,4.225,0,0,3.458,78.71,125.00236456438,0,10,Assisted_Takeoff,
31300,2021-04-17 20:55:19,38.9261729896363,-76.6331615192721,0,,,125.00236456438,0,0,2.30611555936,10,4,16.87,125.00236456438,0,0,2.30611555936,0,0,0,272.2, 1, 1.5,0,0,1024,1024,1344,1024,273.2,0,98,4.225,4.227,4.229,4.225,0,0,3.458,78.71,125.00236456438,0,10,Assisted_Takeoff,
31400,2021-04-17 20:55:19,38.9261729902721,-76.6331615150755,0,,,125.00236456438,0,0,2.30663065124,10,4,16.87,125.00236456438,0,0,2.30663065124,0,0,0,272.3, 1.1, 1.5,0,0,1024,1024,985,1024,273.9,0,98,4.225,4.227,4.229,4.225,0,0,3.458,78.71,125.00236456438,0,10,Assisted_Takeoff,
31500,2021-04-17 20:55:19,38.9261728919759,-76.6331614119266,0,,,125.00236456438,0,0,2.35286096768,10,4,16.87,125.00236456438,0,0,2.35286096768,0,0,0,272.2, 1.3, 1.5,0,0,1024,1024,1031,1024,273.7,0,98,4.225,4.227,4.229,4.225,0,0,3.458,78.71,125.00236456438,0,10,Assisted_Takeoff,
31600,2021-04-17 20:55:19,38.9261728948624,-76.6331614041475,0,,,125.00236456438,0,0,2.35331700444,10,4,16.87,125.00236456438,0,0,2.35331700444,0,0,0,272.4, 1.6, 1.4,0,0,1024,1024,1028,1024,273.6,0,98,4.225,4.227,4.229,4.225,0,0,3.458,78.71,125.00236456438,0,10,Assisted_Takeoff,
31700,2021-04-17 20:55:20,38.9261729001411,-76.6331610863051,0,,,125.00236456438,0,0,2.40625991952,10,4,16.87,125.00236456438,0,0,2.40625991952,0,0,0,272.5, 1.6, 0.5,0,0,1024,1024,1028,1024,273.5,0,98,4.225,4.227,4.229,4.225,0,0,3.458,78.71,125.00236456438,0,10,Assisted_Takeoff,
31800,2021-04-17 20:55:20,38.9261729024776,-76.6331610537542,0,,,125.00236456438,0,0,2.41129272808,10,4,16.87,125.00236456438,0,0,2.41129272808,0,0,0,272.7, 1.2, 0,0,0,1024,1024,1028,1024,273.5,0,98,4.225,4.227,4.229,4.225,0,0,3.458,78.71,125.00236456438,0,10,Assisted_Takeoff,
31900,2021-04-17 20:55:20,38.9261728966339,-76.6331607214506,0,,,125.00236456438,0,0,2.47237868804,10,4,16.87,125.00236456438,0,0,2.47237868804,0,0,0,273.3, 2, 1,0,0,1024,1024,1028,1024,273.4,0,98,4.225,4.227,4.229,4.225,0,0,3.458,78.71,125.00236456438,0,10,Assisted_Takeoff,
32000,2021-04-17 20:55:20,38.9261729086544,-76.6331607196074,0,,,125.00236456438,0,0,2.46935047272,10,4,16.87,125.00236456438,0,0,2.47237868804,0,0,0,273.3, 2.3, 0.9,0,0,1024,1024,1028,1024,273.5,0,98,4.225,4.227,4.229,4.225,0,0,3.458,78.71,125.00236456438,0,10,Assisted_Takeoff,
32100,2021-04-17 20:55:20,38.926172926841,-76.633160365921,0,,,125.00236456438,0,0,2.53005913608,11,4,16.87,125.00236456438,0,0,2.53005913608,0,0,0,273.1, 2.1, 1,0,0,1024,1024,1028,1024,273.5,0,98,4.225,4.227,4.229,4.225,0,0,3.458,78.71,125.00236456438,0,10,Assisted_Takeoff,
32200,2021-04-17 20:55:20,38.9261728923083,-76.6331604523734,0,,,125.00236456438,0,0,2.52323170804,11,4,16.87,125.00236456438,0,0,2.53005913608,0,0,0,273.2, 2, 1,0,0,1024,1024,1028,1024,273.5,0,98,4.225,4.226,4.228,4.224,0,0,3.442,78.71,125.00236456438,0,10,Assisted_Takeoff,
32300,2021-04-17 20:55:20,38.9261728660317,-76.6331604006554,0,,,125.00236456438,0,0,2.54011819152,11,4,16.87,125.00236456438,0,0,2.54011819152,0,0,0,273.1, 2, 1,0,0,1024,1024,1028,1024,273.5,0,98,4.225,4.226,4.228,4.224,0,0,3.442,78.71,125.00236456438,0,10,Assisted_Takeoff,
32400,2021-04-17 20:55:20,38.9261728613702,-76.6331604010344,0,,,125.00236456438,0,0,2.54132554064,11,4,16.87,125.00236456438,0,0,2.54132554064,0,0,0,273.1, 1.9, 1,0,0,1024,1024,1028,1024,273.5,0,98,4.225,4.226,4.228,4.224,0,0,3.442,78.71,125.00236456438,0,10,Assisted_Takeoff,
32500,2021-04-17 20:55:20,38.9261728642864,-76.6331601827358,0,,,125.00236456438,0,0,2.5818406338,11,4,16.87,125.00236456438,0,0,2.5818406338,0,0,0,273.1, 1.9, 1,0,0,1024,1024,1028,1024,273.5,0,98,4.225,4.226,4.228,4.224,0,0,3.442,78.71,125.00236456438,0,10,Assisted_Takeoff,
32600,2021-04-17 20:55:21,38.9261728748167,-76.6331601512711,0,,,125.00236456438,0,0,2.58502961028,11,4,16.87,125.00236456438,0,0,2.58502961028,0,0,0,273.1, 1.9, 1,0,0,1024,1024,1028,1024,273.5,0,98,4.225,4.226,4.228,4.224,0,0,3.442,78.71,125.00236456438,0,10,Assisted_Takeoff,
32700,2021-04-17 20:55:21,38.9261727828734,-76.6331601378348,0,,,125.00236456438,0,0,2.6124016584,11,4,16.87,125.00236456438,0,0,2.6124016584,0,0,0,273.1, 1.8, 1,0,0,1024,1024,1028,1024,273.4,0,98,4.225,4.226,4.228,4.224,0,0,3.442,78.71,125.00236456438,0,10,Assisted_Takeoff,
32800,2021-04-17 20:55:21,38.9261727902009,-76.6331601269969,0,,,125.00236456438,0,0,2.6124836794,11,4,16.87,125.00236456438,0,0,2.6124836794,0,0,0,273.1, 1.8, 1,0,0,1024,1024,1028,1024,273.4,0,98,4.225,4.226,4.228,4.224,0,0,3.442,78.71,125.00236456438,0,10,Assisted_Takeoff,
32900,2021-04-17 20:55:21,38.9261726912576,-76.6331599286491,0,,,125.00236456438,0,0,2.67709654236,10,4,16.87,125.00236456438,0,0,2.67709654236,0,0,0,273.1, 1.8, 1.1,0,0,1024,1024,1028,1024,273.4,0,98,4.225,4.226,4.228,4.224,0,0,3.442,78.71,125.00236456438,0,10,Assisted_Takeoff,
33000,2021-04-17 20:55:21,38.9261726933464,-76.633159927988,0,,,125.00236456438,0,0,2.67666347148,10,4,16.87,125.00236456438,0,0,2.67709654236,0,0,0,273.1, 1.8, 1.1,0,0,1024,1024,1028,1024,273.4,0,98,4.225,4.226,4.228,4.224,0,0,3.442,78.71,125.00236456438,0,10,Assisted_Takeoff,
33100,2021-04-17 20:55:21,38.9261725933468,-76.6331598285344,0,,,125.00236456438,0,0,2.72263132072,11,4,16.87,125.00236456438,0,0,2.72263132072,0,0,0,273.1, 1.8, 1.1,0,0,1024,1024,1028,1024,273.4,0,98,4.225,4.226,4.228,4.224,0,0,3.442,78.71,125.00236456438,0,10,Assisted_Takeoff,
33200,2021-04-17 20:55:21,38.9261725923989,-76.6331598303885,0,,,125.00236456438,0,0,2.72252961468,11,4,16.55,125.00236456438,0,0,2.72263132072,0,0,0,273.1, 1.8, 1.1,0,0,1024,1024,1028,1024,273.4,0,98,4.225,4.226,4.228,4.224,0,0,3.442,78.71,125.00236456438,0,10,Assisted_Takeoff,
33300,2021-04-17 20:55:21,38.9261725924049,-76.6331597286927,0,,,125.00236456438,0,0,2.74210638696,10,4,16.55,125.00236456438,0,0,2.74210638696,0,0,0,273.1, 1.8, 1.1,0,0,1024,1024,1028,1024,273.4,0,98,4.225,4.226,4.228,4.224,0,0,3.442,78.71,125.00236456438,0,10,Assisted_Takeoff,
33400,2021-04-17 20:55:21,38.9261725930021,-76.6331597286566,0,,,125.00236456438,0,0,2.74195218748,10,4,16.55,125.00236456438,0,0,2.74210638696,0,0,0,273.1, 1.8, 1.1,0,0,1024,1024,1028,1024,273.4,0,98,4.225,4.226,4.228,4.224,0,0,3.442,78.71,125.00236456438,0,10,Assisted_Takeoff,
33500,2021-04-17 20:55:21,38.926172493278,-76.6331596275191,0,,,125.00236456438,0,0,2.78814641468,10,4,16.55,125.00236456438,0,0,2.78814641468,0,0,0,273.1, 1.8, 1.1,0,0,1024,1024,1028,1024,273.4,0,98,4.225,4.226,4.228,4.224,0,0,3.442,78.71,125.00236456438,0,10,Assisted_Takeoff,
33600,2021-04-17 20:55:22,38.9261724932369,-76.6331596270511,0,,,125.00236456438,0,0,2.78824812072,10,4,16.55,125.00236456438,0,0,2.78824812072,0,0,0,273.1, 1.8, 1.1,0,0,1024,1024,1028,1024,273.4,0,98,4.225,4.226,4.228,4.224,0,0,3.442,78.71,125.00236456438,0,10,Assisted_Takeoff,
33700,2021-04-17 20:55:22,38.9261724934856,-76.6331596245122,0,,,125.00236456438,0,0,2.78867134908,10,4,16.55,125.00236456438,0,0,2.78867134908,0,0,0,273.1, 1.8, 1.1,0,0,1024,1024,1028,1024,273.4,0,98,4.225,4.226,4.228,4.224,0,0,3.442,78.71,125.00236456438,0,10,Assisted_Takeoff,
33800,2021-04-17 20:55:22,38.9261724936945,-76.6331596242242,0,,,125.00236456438,0,0,2.78867134908,10,4,16.55,125.00236456438,0,0,2.78867134908,0,0,0,273.1, 1.8, 1.1,0,0,1024,1024,1028,1024,273.4,0,98,4.225,4.226,4.228,4.224,0,0,3.442,78.71,125.00236456438,0,10,Assisted_Takeoff,
33900,2021-04-17 20:55:22,38.9261723927378,-76.6331595259344,0,,,125.00236456438,0,0,2.83465232168,10,4,16.55,125.00236456438,0,0,2.83465232168,0,0,0,273.1, 1.8, 1.1,0,0,1024,1024,1028,1024,273.4,0,98,4.225,4.226,4.228,4.224,0,0,3.442,78.71,125.00236456438,0,10,Assisted_Takeoff,
34000,2021-04-17 20:55:22,38.9261723921307,-76.6331595246413,0,,,125.00236456438,0,0,2.83506242668,10,4,16.55,125.00236456438,0,0,2.83506242668,0,0,0,273.1, 1.8, 1.1,0,0,1024,1024,1028,1024,273.4,0,98,4.225,4.226,4.228,4.224,0,0,3.442,78.71,125.00236456438,0,10,Assisted_Takeoff,
34100,2021-04-17 20:55:22,38.9261722915879,-76.6331594235219,0,,,125.00236456438,0,0,2.88148303184,10,4,16.55,125.00236456438,0,0,2.88148303184,0,0,0,273.1, 1.8, 1.1,0,0,1024,1024,1028,1024,273.4,0,98,4.225,4.226,4.228,4.224,0,0,3.442,78.71,125.00236456438,0,10,Assisted_Takeoff,
34200,2021-04-17 20:55:22,38.9261722915298,-76.633159421987,0,,,125.00236456438,0,0,2.88179471164,10,4,16.764,125.00236456438,0,0,2.88179471164,0,0,0,273.1, 1.8, 1.1,0,0,1024,1024,1028,1024,273.4,0,98,4.18,4.184,4.189,4.183,0,0,8.426,78.71,125.00236456438,0,10,Assisted_Takeoff,
34300,2021-04-17 20:55:22,38.9261722913539,-76.6331593233764,0,,,125.00236456438,0,0,2.90089904296,11,4,16.764,125.00236456438,0,0,2.90089904296,0,0,0,273.1, 1.8, 1.1,0,0,1024,1024,1028,1024,273.4,0,98,4.18,4.184,4.189,4.183,0,0,8.426,78.71,125.00236456438,0,10,Assisted_Takeoff,
34400,2021-04-17 20:55:22,38.9261722911871,-76.6331593248867,0,,,125.00236456438,0,0,2.90064969912,11,4,16.764,125.00236456438,0,0,2.90089904296,0,0,0,273.1, 1.8, 1,0,0,1024,1024,1028,1024,273.4,0,98,4.18,4.184,4.189,4.183,0,0,8.426,78.71,125.00236456438,0,10,Assisted_Takeoff,
34500,2021-04-17 20:55:22,38.9261722907589,-76.6331593247143,0,,,125.00236456438,0,0,2.90079733692,10,4,16.764,125.00236456438,0,0,2.90089904296,0,0,0,273.1, 1.8, 1,0,0,1024,1024,1028,1024,273.4,0,98,4.18,4.184,4.189,4.183,0,0,8.426,78.71,125.00236456438,0,10,Assisted_Takeoff,
34600,2021-04-17 20:55:22,38.9261722898373,-76.6331593243171,0,,,125.00236456438,0,0,2.90111885924,10,4,16.764,125.00236456438,0,0,2.90111885924,0,0,0,273.1, 1.8, 1,0,0,1024,1024,1028,1024,273.4,0,98,4.18,4.184,4.189,4.183,0,0,8.426,78.71,125.00236456438,0,10,Assisted_Takeoff,
34700,2021-04-17 20:55:23,38.9261721904714,-76.6331592220322,0,,,125.00236456438,0,0,2.94743119668,11,4,16.764,125.00236456438,0,0,2.94743119668,0,0,0,273.1, 1.8, 1,0,0,1024,1024,1028,1024,273.4,0,98,4.18,4.184,4.189,4.183,0,0,8.426,78.71,125.00236456438,0,10,Assisted_Takeoff,
34800,2021-04-17 20:55:23,38.9261721901439,-76.6331592220104,0,,,125.00236456438,0,0,2.9475230602,11,4,16.764,125.00236456438,0,0,2.9475230602,0,0,0,273.1, 1.8, 1,0,0,1024,1024,1028,1024,273.4,0,98,4.18,4.184,4.189,4.183,0,0,8.426,78.71,125.00236456438,0,10,Assisted_Takeoff,
34900,2021-04-17 20:55:23,38.9261720904176,-76.6331592202706,0,,,125.00236456438,0,0,2.9745571818,11,4,16.764,125.00236456438,0,0,2.9745571818,0,0,0,273.1, 1.8, 1,0,0,1024,1024,1028,1024,273.4,-0.1,98,4.18,4.184,4.189,4.183,0,0,8.426,78.71,125.00236456438,0,10,Assisted_Takeoff,
35000,2021-04-17 20:55:23,38.9261720889013,-76.6331592215551,0,,,125.00236456438,0,0,2.97471794296,11,4,16.764,125.00236456438,0,0,2.97471794296,0,0,0,273.1, 1.8, 1,0,0,1024,1024,1028,1024,273.4,-0.1,98,4.18,4.184,4.189,4.183,0,0,8.426,78.71,125.00236456438,0,10,Assisted_Takeoff,
35100,2021-04-17 20:55:23,38.9261720896939,-76.6331592233926,0,,,125.00236456438,0,0,2.97415363848,11,4,16.764,125.00236456438,0,0,2.97471794296,0,0,0,273.1, 1.8, 1,0,0,1024,1024,1028,1024,273.4,-0.1,98,4.18,4.184,4.189,4.183,0,0,8.426,78.71,125.00236456438,0,10,Assisted_Takeoff,
35200,2021-04-17 20:55:23,38.9261720905666,-76.6331592212345,0,,,125.00236456438,0,0,2.97433080384,11,4,16.844,125.00236456438,0,0,2.97471794296,0,0,0,273.1, 1.8, 1,0,0,1024,1024,1028,1024,273.4,-0.1,98,4.214,4.216,4.218,4.214,0,0,3.722,78.71,125.00236456438,0,10,Assisted_Takeoff,
35300,2021-04-17 20:55:23,38.9261720907863,-76.6331591211158,0,,,125.00236456438,0,0,2.99356636876,11,4,16.844,125.00236456438,0,0,2.99356636876,0,0,0,273.1, 1.8, 1,0,0,1024,1024,1028,1024,273.4,-0.1,98,4.214,4.216,4.218,4.214,0,0,3.722,78.71,125.00236456438,0,10,Assisted_Takeoff,
35400,2021-04-17 20:55:23,38.9261720923151,-76.6331591189074,0,,,125.00236456438,0,0,2.99358277296,11,4,16.844,125.00236456438,0,0,2.99358277296,0,0,0,273.1, 1.8, 1,0,0,1024,1024,1028,1024,273.4,-0.2,98,4.214,4.216,4.218,4.214,0,0,3.722,78.71,125.00236456438,0,10,Assisted_Takeoff,
35500,2021-04-17 20:55:23,38.9261719925775,-76.6331590183474,0,,,125.00236456438,0,0,3.03966873244,11,4,16.844,125.00236456438,0,0,3.03966873244,0,0,0,273.1, 1.8, 1,0,0,1024,1024,1028,1024,273.4,-0.2,98,4.214,4.216,4.218,4.214,0,0,3.722,78.71,125.00236456438,0,10,Assisted_Takeoff,
35600,2021-04-17 20:55:24,38.926171991851,-76.6331590177467,0.328084,,,125.33044856438,0,0,3.0399771314,11,4,16.844,125.33044856438,0.328084,0,3.0399771314,0,0,0,273.1, 1.8, 1,0,0,1024,1024,1028,1024,273.4,-0.2,98,4.214,4.216,4.218,4.214,0,0,3.722,78.71,125.33044856438,0.328084,10,Assisted_Takeoff,
35700,2021-04-17 20:55:24,38.9261719898534,-76.6331590194112,0.328084,,,125.33044856438,0,0,3.040190386,11,4,16.844,125.33044856438,0.328084,0,3.040190386,0,0,0,273.1, 1.8, 1,0,0,1024,1024,1028,1024,273.4,-0.2,98,4.214,4.216,4.218,4.214,0,0,3.722,78.71,125.33044856438,0.328084,10,Assisted_Takeoff,
35800,2021-04-17 20:55:24,38.9261719889032,-76.6331590193036,0.328084,,,125.33044856438,0,0,3.04046597656,11,4,16.844,125.33044856438,0.328084,0,3.04046597656,0,0,0,273.1, 1.8, 1,0,0,1024,1024,1028,1024,273.4,-0.2,98,4.214,4.216,4.218,4.214,0,0,3.722,78.71,125.33044856438,0.328084,10,Assisted_Takeoff,
35900,2021-04-17 20:55:24,38.9261718884657,-76.6331590188942,0.328084,,,125.33044856438,0,0,3.06749681732,11,4,16.844,125.33044856438,0.328084,0,3.06749681732,0,0,0,273.1, 1.8, 1,0,0,1024,1024,1031,1024,273.4,-0.3,98,4.214,4.216,4.218,4.214,0,0,3.722,78.71,125.33044856438,0.328084,10,Assisted_Takeoff,
36000,2021-04-17 20:55:24,38.9261718879602,-76.6331590189642,0.328084,,,125.33044856438,0,0,3.06762148924,11,4,16.844,125.33044856438,0.328084,0,3.06762148924,0,0,0,273.1, 1.8, 1,0,0,1024,1024,1028,1024,273.4,-0.3,98,4.214,4.216,4.218,4.214,0,0,3.722,78.71,125.33044856438,0.328084,10,Assisted_Takeoff,
36100,2021-04-17 20:55:24,38.9261719880793,-76.6331589176098,0.328084,,,125.33044856438,0,0,3.06039707956,11,4,16.844,125.33044856438,0.328084,0,3.06762148924,0,0,0,273.1, 1.8, 1,0,0,1024,1024,1033,1024,273.4,-0.7,98,4.214,4.216,4.218,4.214,0,0,3.722,78.71,125.33044856438,0.328084,10,Assisted_Takeoff,
36200,2021-04-17 20:55:24,38.9261719877707,-76.6331589180382,0.328084,,,125.33044856438,0,0,3.06039707956,11,4,16.844,125.33044856438,0.328084,0,3.06762148924,0,0,0,273.1, 1.8, 1,0,0,1024,1024,1122,1024,273.4,-0.7,98,4.218,4.221,4.223,4.218,0,0,3.468,78.71,125.33044856438,0.328084,10,Assisted_Takeoff,
36300,2021-04-17 20:55:24,38.926171989382,-76.633158917857,0.328084,,,125.33044856438,0,0,3.06000337876,11,4,16.844,125.33044856438,0.328084,0,3.06762148924,0,0,0,273.1, 1.8, 1,0,0,1024,1024,1124,1024,273.4,-1.1,98,4.218,4.221,4.223,4.218,0,0,3.468,78.71,125.33044856438,0.328084,10,Assisted_Takeoff,
36400,2021-04-17 20:55:24,38.9261719894288,-76.6331589187675,0.328084,,,125.33044856438,0,0,3.05981309004,11,4,16.844,125.33044856438,0.328084,0,3.06762148924,0,0,0,273.1, 1.8, 1,0,0,1024,1024,1109,1024,273.4,-1.1,98,4.218,4.221,4.223,4.218,0,0,3.468,78.71,125.33044856438,0.328084,10,Assisted_Takeoff,
36500,2021-04-17 20:55:24,38.9261718888988,-76.6331589185478,0.328084,,,125.33044856438,0,0,3.0866634846,11,4,16.844,125.33044856438,0.328084,0,3.0866634846,0,0,0,273.1, 1.8, 1,0,0,1024,1024,1096,1024,273.4,-1.5,98,4.218,4.221,4.223,4.218,0,0,3.468,78.71,125.33044856438,0.328084,10,Assisted_Takeoff,
36600,2021-04-17 20:55:25,38.9261718892355,-76.6331589167442,0.328084,,,125.33044856438,0,0,3.08692267096,11,4,16.844,125.33044856438,0.328084,0,3.08692267096,0,0,0,273.1, 1.9, 1,0,0,1024,1024,1088,1024,273.4,-1.7,98,4.218,4.221,4.223,4.218,0,0,3.468,78.71,125.33044856438,0.328084,10,Assisted_Takeoff,
36700,2021-04-17 20:55:25,38.926171988504,-76.6331589152915,0.328084,,,125.33044856438,0,0,3.06073500608,11,4,16.844,125.33044856438,0.328084,0,3.08692267096,0,0,0,273.1, 1.9, 1,0,0,1024,1024,1083,1024,273.4,-1.9,98,4.218,4.221,4.223,4.218,0,0,3.468,78.71,125.33044856438,0.328084,10,Assisted_Takeoff,
36800,2021-04-17 20:55:25,38.926171989127,-76.6331589115027,0.328084,,,125.33044856438,0,0,3.06130915308,11,4,16.844,125.33044856438,0.328084,0,3.08692267096,0,0,0,273.1, 2.1, 1,0,0,1024,1024,1087,1024,273.4,-2.2,98,4.218,4.221,4.223,4.218,0,0,3.468,78.71,125.33044856438,0.328084,10,Assisted_Takeoff,
36900,2021-04-17 20:55:25,38.9261719882989,-76.633158909193,0.328084,,,125.33044856438,0,0,3.06197844444,11,4,16.844,125.33044856438,0.328084,0,3.08692267096,0,0,0,273.1, 2.3, 1,0,0,1024,1024,1089,1024,273.4,-2.4,98,4.218,4.221,4.223,4.218,0,0,3.468,78.71,125.33044856438,0.328084,10,Assisted_Takeoff,
37000,2021-04-17 20:55:25,38.9261719873283,-76.6331588992999,0.328084,,,125.33044856438,0,0,3.06416348388,11,4,16.844,125.33044856438,0.328084,0,3.08692267096,0,0,0,273.3, 2.3, 0.8,0,0,1024,1024,1084,1024,273.4,-2.6,98,4.218,4.221,4.223,4.218,0,0,3.468,78.71,125.33044856438,0.328084,10,Assisted_Takeoff,
37100,2021-04-17 20:55:25,38.9261719919449,-76.6331588692374,0.328084,,,125.33044856438,0,0,3.06880259164,11,4,16.844,125.33044856438,0.328084,0,3.08692267096,0,0,0,273.4, 2.1, 0.2,0,0,1024,1024,1079,1024,273.4,-2.8,98,4.218,4.221,4.223,4.218,0,0,3.468,78.71,125.33044856438,0.328084,10,Assisted_Takeoff,
37200,2021-04-17 20:55:25,38.9261720005911,-76.6331588178178,0.328084,,,125.33044856438,0,0,3.07658146328,11,4,16.844,125.33044856438,0.328084,0,3.08692267096,0,0,-0.223694,273.5, 1.8, 0,0,0,1024,1024,1080,1024,273.4,-3.1,98,4.218,4.221,4.223,4.218,0,0,3.468,78.71,125.33044856438,0.328084,10,Assisted_Takeoff,
37300,2021-04-17 20:55:25,38.9261719066067,-76.6331587720372,0.328084,,,125.33044856438,0.328084,0,3.11037739612,11,4,16.844,125.33044856438,0.328084,0,3.11037739612,0,0,-0.447388,273.7, 1.3, -0.2,0,0,1024,1024,1093,1024,273.4,-3.4,98,4.218,4.221,4.223,4.218,0,0,3.468,78.71,125.33044856438,0.328084,32,GPSNovice,
37400,2021-04-17 20:55:25,38.9261719040685,-76.6331587445702,0.328084,,,125.33044856438,0.328084,0,3.11641742256,11,4,16.844,125.33044856438,0.328084,0,3.11641742256,0,0,-0.671082,273.7, 0.5, -0.1,0,0,1024,1024,1102,1024,273.4,-3.6,98,4.218,4.221,4.223,4.218,0,0,3.468,78.71,125.33044856438,0.328084,32,GPSNovice,
37500,2021-04-17 20:55:25,38.9261720050004,-76.6331588457138,0.328084,,,125.33044856438,0.328084,0,3.06995088564,11,4,16.844,125.33044856438,0.328084,0,3.11641742256,0,0,-0.671082,273.6, 0.2, -0.2,0,0,1024,1024,1110,1024,273.4,-3.9,98,4.218,4.221,4.223,4.218,0,0,3.468,78.71,125.33044856438,0.328084,32,GPSNovice,
37600,2021-04-17 20:55:26,38.9261720029656,-76.6331588559239,0.328084,,,125.33044856438,0.328084,0,3.068487631,11,4,16.844,125.33044856438,0.328084,0,3.11641742256,0,0,-0.447388,273.6, 0, -0.1,0,0,1024,1024,1124,1024,273.4,-4.2,98,4.218,4.221,4.223,4.218,0,0,3.468,78.71,125.33044856438,0.328084,32,GPSNovice,
37700,2021-04-17 20:55:26,38.9261721008566,-76.6331584886098,0.328084,,,125.33044856438,0.328084,0,3.11609590024,11,4,16.844,125.33044856438,0.328084,0,3.11641742256,0,0,0,273.6, 0, -0.1,0,0,1024,1024,1156,1024,273.4,-4.4,98,4.218,4.221,4.223,4.218,0,0,3.468,78.71,125.33044856438,0.328084,32,GPSNovice,
37800,2021-04-17 20:55:26,38.9261720914927,-76.6331585493713,0.328084,,,125.33044856438,0.328084,0,3.10624353772,11,4,16.844,125.33044856438,0.328084,0,3.11641742256,0,0,0,273.6, 0.2, 0,0,0,1024,1024,1157,1024,273.4,-4.7,98,4.218,4.221,4.223,4.218,0,0,3.468,78.71,125.33044856438,0.328084,32,GPSNovice,
37900,2021-04-17 20:55:26,38.9261720845419,-76.6331584911914,0.328084,,,125.33044856438,0.328084,0,3.11975403684,11,4,16.844,125.33044856438,0.328084,0,3.11975403684,0,0,0,273.5, 0.3, 0,0,0,1024,1024,1158,1024,273.4,-5,98,4.218,4.221,4.223,4.218,0,0,3.468,78.71,125.33044856438,0.328084,32,GPSNovice,
38000,2021-04-17 20:55:26,38.9261720733232,-76.6331585078891,0.328084,,,125.33044856438,0.328084,0,3.11926847252,11,4,16.844,125.33044856438,0.328084,0,3.11975403684,0,0,0,273.5, 0.3, 0.2,0,0,1024,1024,1176,1024,273.4,-5.3,98,4.218,4.221,4.223,4.218,0,0,3.468,78.71,125.33044856438,0.328084,32,GPSNovice,
38100,2021-04-17 20:55:26,38.926172072754,-76.6331578997619,0.328084,,,125.33044856438,0.328084,0,3.24420285972,11,4,16.844,125.33044856438,0.328084,0,3.24420285972,0,0,-0.223694,273.6, 0, 0.3,0,0,1024,1024,1193,1024,273.4,-5.6,98,4.218,4.221,4.223,4.218,0,0,3.468,78.71,125.33044856438,0.328084,32,GPSNovice,
38200,2021-04-17 20:55:26,38.9261720883488,-76.6331578773268,0.328084,,,125.33044856438,0.328084,0,3.2450460356,11,4,16.63,125.33044856438,0.328084,0,3.2450460356,0,0,0,273.7, -0.1, 0.1,0,0,1024,1024,1193,1024,273.4,-5.9,97,4.202,4.201,4.202,4.191,0,0,3.76,78.71,125.33044856438,0.328084,32,GPSNovice,
38300,2021-04-17 20:55:26,38.926172304999,-76.6331576809384,0.328084,,,125.33044856438,0.328084,0,3.2341864552,11,4,16.63,125.33044856438,0.328084,0,3.2450460356,0,0,0,273.7, -0.1, 0,0,0,1024,1024,1193,1024,273.4,-5.9,97,4.202,4.201,4.202,4.191,0,0,3.76,78.71,125.33044856438,0.328084,32,GPSNovice,
38400,2021-04-17 20:55:26,38.9261723218347,-76.6331576902173,0.328084,,,125.33044856438,0.328084,0,3.228182518,11,4,16.63,125.33044856438,0.328084,0,3.2450460356,0,0,0,273.7, -0.1, 0,0,0,1024,1024,1222,1024,273.4,-6.4,97,4.202,4.201,4.202,4.191,0,0,3.76,78.71,125.33044856438,0.328084,32,GPSNovice,
38500,2021-04-17 20:55:26,38.9261724260804,-76.633157208511,0.328084,,,125.33044856438,0.328084,0,3.3090880324,11,4,16.63,125.33044856438,0.328084,0,3.3090880324,0,0,0,273.7, 0, -0.2,0,0,1024,1024,1222,1024,273.4,-6.7,97,4.202,4.201,4.202,4.191,0,0,3.76,78.71,125.33044856438,0.328084,32,GPSNovice,
38600,2021-04-17 20:55:26,38.9261724240175,-76.6331572128285,0.328084,,,125.33044856438,0.328084,0,3.3085959064,11,4,16.63,125.33044856438,0.328084,0,3.3090880324,0,0,0,273.7, 0, -0.2,0,0,1024,1024,1221,1024,273.4,-7,97,4.202,4.201,4.202,4.191,0,0,3.76,78.71,125.33044856438,0.328084,32,GPSNovice,
38700,2021-04-17 20:55:27,38.9261727121048,-76.6331570137255,0.328084,,,125.33044856438,0.328084,0,3.2890421,10,4,16.63,125.33044856438,0.328084,0,3.3090880324,0,0,0,273.7, 0.1, -0.1,0,0,1024,1024,1219,1018,273.4,-7.3,97,4.202,4.201,4.202,4.191,0,0,3.76,78.71,125.33044856438,0.328084,32,GPSNovice,
38800,2021-04-17 20:55:27,38.9261727061341,-76.6331570133429,0.656168,,,125.65853256438,0.328084,0,3.2904200528,10,4,16.63,125.65853256438,0.656168,0,3.3090880324,0,0,0,273.7, 0, -0.1,0,0,1024,1024,1225,1024,273.4,-7.7,97,4.202,4.201,4.202,4.191,0,0,3.76,78.71,125.65853256438,0.656168,32,GPSNovice,
38900,2021-04-17 20:55:27,38.9261729078056,-76.6331567959191,0.656168,,,125.65853256438,0.328084,0,3.2973426252,10,4,16.63,125.65853256438,0.656168,0,3.3090880324,0,0,0,273.7, -0.1, -0.2,0,0,1024,1024,1234,1024,273.4,-8,97,4.202,4.201,4.202,4.191,0,0,3.76,78.71,125.65853256438,0.656168,32,GPSNovice,
39000,2021-04-17 20:55:27,38.926172905823,-76.6331567773017,0.656168,,,125.65853256438,0.328084,0,3.3020670348,10,4,16.63,125.65853256438,0.656168,0,3.3090880324,0,0,0,273.7, -0.1, -0.1,0,0,1024,1024,1242,1024,273.4,-8.3,97,4.202,4.201,4.202,4.191,0,0,3.76,78.71,125.65853256438,0.656168,32,GPSNovice,
39100,2021-04-17 20:55:27,38.9261731029102,-76.6331564678584,0.656168,,,125.65853256438,0.328084,0,3.3345801592,9,4,16.63,125.65853256438,0.656168,0,3.3345801592,0,0,0,273.7, -0.2, -0.1,0,0,1024,1024,1247,1024,273.4,-8.6,97,4.202,4.201,4.202,4.191,0,0,3.76,78.71,125.65853256438,0.656168,32,GPSNovice,
39200,2021-04-17 20:55:27,38.9261731017769,-76.6331564803325,0.656168,,,125.65853256438,0.328084,0,3.331857062,9,4,16.257,125.65853256438,0.656168,0,3.3345801592,0,0,0,273.6, -0.2, -0.1,0,0,1024,1024,1265,1022,273.4,-8.9,97,4.098,4.103,4.11,4.098,0,0,12.978,78.71,125.65853256438,0.656168,32,GPSNovice,
39300,2021-04-17 20:55:27,38.9261734055536,-76.6331559699868,0.656168,,,125.65853256438,0.328084,0,3.3968833108,9,4,16.257,125.65853256438,0.656168,0,3.3968833108,0,0,0,273.5, -0.3, -0.2,0,0,1024,1024,1269,1022,273.4,-9.6,97,4.098,4.103,4.11,4.098,0,0,12.978,78.71,125.65853256438,0.656168,32,GPSNovice,
39400,2021-04-17 20:55:27,38.9261734053198,-76.6331559726194,0.656168,,,125.65853256438,0.328084,0,3.3962599512,9,4,16.257,125.65853256438,0.656168,0,3.3968833108,0,0,0,273.5, -0.2, -0.1,0,0,1024,1024,1271,1020,273.4,-9.9,97,4.098,4.103,4.11,4.098,0,0,12.978,78.71,125.65853256438,0.656168,32,GPSNovice,
39500,2021-04-17 20:55:27,38.9261737987425,-76.6331556893694,0.656168,,,125.65853256438,0.328084,0,3.3973754368,9,4,16.257,125.65853256438,0.656168,0,3.3973754368,0,0,0,273.4, -0.1, -0.1,0,0,1024,1024,1241,1017,273.4,-9.9,97,4.098,4.103,4.11,4.098,0,0,12.978,78.71,125.65853256438,0.656168,32,GPSNovice,
39600,2021-04-17 20:55:28,38.9261737984035,-76.6331556947192,0.656168,,,125.65853256438,0.328084,0,3.3960959092,9,4,16.257,125.65853256438,0.656168,0,3.3973754368,0,0,0,273.4, -0.2, -0.2,0,0,1024,1024,1221,1023,273.4,-10.2,97,4.098,4.103,4.11,4.098,0,0,12.978,78.71,125.65853256438,0.656168,32,GPSNovice,
39700,2021-04-17 20:55:28,38.9261737893466,-76.6331551006905,0.656168,,,125.65853256438,0.328084,0,3.5479659928,10,4,16.257,125.65853256438,0.656168,0,3.5479659928,0,0,-0.223694,273.3, -0.3, -0.1,0,0,1024,1024,1030,1024,273.4,-10.5,97,4.098,4.103,4.11,4.098,0,0,12.978,78.71,125.65853256438,0.656168,32,GPSNovice,
39800,2021-04-17 20:55:28,38.9261737792154,-76.6331551038433,0.656168,,,125.65853256438,0.328084,0,3.5488190112,10,4,16.257,125.65853256438,0.656168,0,3.5488190112,0,0,0,273.3, -0.3, 0,0,0,1024,1024,1028,1024,273.4,-10.9,97,4.098,4.103,4.11,4.098,0,0,12.978,78.71,125.65853256438,0.656168,32,GPSNovice,
39900,2021-04-17 20:55:28,38.9261741661245,-76.6331547177429,0.656168,,,125.65853256438,0.328084,0,3.5886484088,10,4,16.257,125.65853256438,0.656168,0,3.5886484088,0,0,0,273.3, -0.3, 0.1,0,0,1024,1024,1028,1024,273.4,-11.2,97,4.098,4.103,4.11,4.098,0,0,12.978,78.71,125.65853256438,0.656168,32,GPSNovice,
40000,2021-04-17 20:55:28,38.9261741635662,-76.6331547175226,0.656168,,,125.65853256438,0.328084,0,3.589074918,10,4,16.257,125.65853256438,0.656168,0,3.589074918,0,0,0,273.3, -0.3, 0.2,0,0,1024,1024,1029,1024,273.4,-11.9,97,4.098,4.103,4.11,4.098,0,0,12.978,78.71,125.65853256438,0.656168,32,GPSNovice,
40100,2021-04-17 20:55:28,38.9261741751445,-76.6331542107381,0.656168,,,125.65853256438,0.328084,0,3.7197507752,10,4,16.257,125.65853256438,0.656168,0,3.7197507752,0,0,0,273.3, -0.2, 0.3,0,0,1024,1024,1028,1024,273.4,-12.2,97,4.098,4.103,4.11,4.098,0,0,12.978,78.71,125.65853256438,0.656168,32,GPSNovice,
40200,2021-04-17 20:55:28,38.9261741812323,-76.6331542276794,0.656168,,,125.65853256438,0.328084,0,3.7144686228,10,4,16.231,125.65853256438,0.656168,0,3.7197507752,0,0,0,273.3, -0.1, 0.2,0,0,1024,1024,1028,1024,273.4,-12.5,97,4.071,4.074,4.081,4.064,0,0,14.25,78.71,125.65853256438,0.656168,32,GPSNovice,
40300,2021-04-17 20:55:28,38.9261744876785,-76.6331539278847,0.656168,,,125.65853256438,0,0,3.7524935584,11,4,16.231,125.65853256438,0.656168,0,3.7524935584,0,0,0,273.3, -0.1, 0.3,0,0,1024,1024,1028,1024,273.4,-12.9,97,4.071,4.074,4.081,4.064,0,0,14.25,78.71,125.65853256438,0.656168,32,GPSNovice,
40400,2021-04-17 20:55:28,38.9261744910488,-76.6331539291239,0.656168,,,125.65853256438,0,0,3.7517061568,11,4,16.231,125.65853256438,0.656168,0,3.7524935584,0,0,0,273.4, -0.1, 0.1,0,0,1024,1024,1028,1024,273.4,-13.2,97,4.071,4.074,4.081,4.064,0,0,14.25,78.71,125.65853256438,0.656168,32,GPSNovice,
40500,2021-04-17 20:55:28,38.9261747968181,-76.633153713384,0.656168,,,125.65853256438,0,0,3.7720801732,11,4,16.231,125.65853256438,0.656168,0,3.7720801732,0,0,0,273.5, -0.1, 0,0,0,1024,1024,1028,1024,273.4,-13.5,97,4.071,4.074,4.081,4.064,0,0,14.25,78.71,125.65853256438,0.656168,32,GPSNovice,
40600,2021-04-17 20:55:29,38.9261747812654,-76.6331537205653,0.656168,,,125.65853256438,0,0,3.7719489396,11,4,16.231,125.65853256438,0.656168,0,3.7720801732,0,0,0,273.5, -0.1, 0.2,0,0,1024,1024,1028,1024,273.4,-13.9,97,4.071,4.074,4.081,4.064,0,0,14.25,78.71,125.65853256438,0.656168,32,GPSNovice,
40700,2021-04-17 20:55:29,38.9261749754509,-76.6331533149914,0.656168,,,125.65853256438,0,0,3.8596786012,11,4,16.231,125.65853256438,0.656168,0,3.8596786012,0,0,0,273.5, 0, 0.3,0,0,1024,1024,1028,1024,273.4,-14.2,97,4.071,4.074,4.081,4.064,0,0,14.25,78.71,125.65853256438,0.656168,32,GPSNovice,
40800,2021-04-17 20:55:29,38.9261749683475,-76.6331533103549,0.984252,,,125.98661656438,0,0,3.861712722,11,4,16.231,125.98661656438,0.984252,0,3.861712722,0,0,0,273.5, 0, 0.3,0,0,1024,1024,1029,1024,273.4,-14.5,97,4.071,4.074,4.081,4.064,0,0,14.25,78.71,125.98661656438,0.984252,32,GPSNovice,
40900,2021-04-17 20:55:29,38.9261749654454,-76.6331533208039,0.984252,,,125.98661656438,0,0,3.8591864752,11,4,16.231,125.98661656438,0.984252,0,3.861712722,0,0,0,273.5, 0, 0.3,0,0,1024,1024,1028,1024,273.4,-14.8,97,4.071,4.074,4.081,4.064,0,0,14.25,78.71,125.98661656438,0.984252,32,GPSNovice,
41000,2021-04-17 20:55:29,38.9261749672407,-76.63315332244,0.984252,,,125.98661656438,0,0,3.8585303072,11,4,16.231,125.98661656438,0.984252,0,3.861712722,0,0,0,273.5, 0, 0.4,0,0,1024,1024,1029,1024,273.4,-15.2,97,4.071,4.074,4.081,4.064,0,0,14.25,78.71,125.98661656438,0.984252,32,GPSNovice,
41100,2021-04-17 20:55:29,38.9261753612598,-76.6331528215646,0.984252,,,125.98661656438,0,0,3.9559056384,10,4,16.231,125.98661656438,0.984252,0,3.9559056384,0,0,0,273.6, 0, 0.5,0,0,1024,1024,1025,1024,273.4,-15.5,97,4.071,4.074,4.081,4.064,0,0,14.25,78.71,125.98661656438,0.984252,32,GPSNovice,
41200,2021-04-17 20:55:29,38.9261753591654,-76.6331528039276,0.984252,,,125.98661656438,0,0,3.9609253236,10,4,16.151,125.98661656438,0.984252,0,3.9609253236,0,0,0,273.6, -0.1, 0.5,0,0,1024,1024,1028,1024,273.4,-15.8,97,4.071,4.074,4.081,4.064,0,0,14.25,78.71,125.98661656438,0.984252,32,GPSNovice,
41300,2021-04-17 20:55:29,38.9261755458856,-76.6331525119501,0.984252,,,125.98661656438,0,0,4.0249017036,9,4,16.151,125.98661656438,0.984252,0,4.0249017036,0,0,0,273.5, -0.1, 0.8,0,0,1024,1024,1028,1024,273.4,-16.1,97,4.071,4.074,4.081,4.064,0,0,14.25,78.71,125.98661656438,0.984252,32,GPSNovice,
41400,2021-04-17 20:55:29,38.9261755424219,-76.6331525170829,0.984252,,,125.98661656438,0,0,4.0237534096,9,4,16.151,125.98661656438,0.984252,0,4.0249017036,0,0,0,273.3, 0, 0.8,0,0,1024,1024,1028,1024,273.4,-16.4,97,4.071,4.074,4.081,4.064,0,0,14.25,78.71,125.98661656438,0.984252,32,GPSNovice,
41500,2021-04-17 20:55:30,38.9261756532199,-76.6331522182777,0.984252,,,125.98661656438,0,0,4.0973426508,9,4,16.151,125.98661656438,0.984252,0,4.0973426508,0,0,0,273, 0, 0.8,0,0,1024,1024,1028,1024,273.4,-17,97,4.071,4.074,4.081,4.064,0,0,14.25,78.71,125.98661656438,0.984252,32,GPSNovice,
41700,2021-04-17 20:55:30,38.9261758865345,-76.6331519125858,0.984252,,,125.98661656438,0,0,4.1647639128,9,4,16.151,125.98661656438,0.984252,0,4.1647639128,0,0,0,272.8, 0, 0.5,0,0,1024,1024,1028,1024,273.4,-17.3,97,4.071,4.074,4.081,4.064,0,0,14.25,78.71,125.98661656438,0.984252,32,GPSNovice,
41800,2021-04-17 20:55:30,38.9261758935786,-76.6331519169082,0.984252,,,125.98661656438,0,0,4.163057876,9,4,16.151,125.98661656438,0.984252,0,4.1647639128,0,0,0,272.9, 0, 0.4,0,0,1024,1024,1028,1024,273.4,-17.6,97,4.071,4.074,4.081,4.064,0,0,14.25,78.71,125.98661656438,0.984252,32,GPSNovice,
41900,2021-04-17 20:55:30,38.9261759017135,-76.6331516203354,0.984252,,,125.98661656438,0,0,4.2451444928,11,4,16.151,125.98661656438,0.984252,0,4.2451444928,0,0,0,273, 0, 0.3,0,0,1024,1024,1028,1024,273.4,-17.9,97,4.071,4.074,4.081,4.064,0,0,14.25,78.71,125.98661656438,0.984252,32,GPSNovice,
42000,2021-04-17 20:55:30,38.9261759034834,-76.6331516324425,0.984252,,,125.98661656438,0,0,4.241633994,11,4,16.151,125.98661656438,0.984252,0,4.2451444928,0,0,0,273.1, 0, 0.3,0,0,1024,1024,1028,1024,273.4,-18.2,97,4.071,4.074,4.081,4.064,0,0,14.25,78.71,125.98661656438,0.984252,32,GPSNovice,
42100,2021-04-17 20:55:30,38.9261761068146,-76.633151219022,0.984252,,,125.98661656438,0,0,4.3439305852,10,4,16.151,125.98661656438,0.984252,0,4.3439305852,0,0,0,273.2, 0, 0.2,0,0,1040,1024,1028,1024,273.4,-18.5,97,4.071,4.074,4.081,4.064,0,0,14.25,78.71,125.98661656438,0.984252,32,GPSNovice,
42200,2021-04-17 20:55:30,38.9261761129998,-76.6331511924695,0.984252,,,125.98661656438,0,0,4.3509843912,10,4,16.204,125.98661656438,0.984252,0,4.3509843912,0,0,0,273.3, 0, 0.1,0,0,1187,1024,1028,1024,273.4,-18.8,97,4.064,4.067,4.077,4.063,0,0,14.006,78.71,125.98661656438,0.984252,32,GPSNovice,
42300,2021-04-17 20:55:30,38.9261764167002,-76.6331505881967,0.984252,,,125.98661656438,0,0,4.5038059184,10,4,16.204,125.98661656438,0.984252,0,4.5038059184,0,0,0,273.4, -0.1, 0,0,0,1195,1024,1028,1024,273.4,-19.1,97,4.064,4.067,4.077,4.063,0,0,14.006,78.71,125.98661656438,0.984252,32,GPSNovice,
42400,2021-04-17 20:55:30,38.9261764194557,-76.6331505832609,0.984252,,,125.98661656438,0,0,4.5050526376,10,4,16.204,125.98661656438,0.984252,0,4.5050526376,0,0,0,273.5, -1, 0,0,0,1193,1026,1028,1024,273.4,-19.4,97,4.064,4.067,4.077,4.063,0,0,14.006,78.71,125.98661656438,0.984252,32,GPSNovice,
42500,2021-04-17 20:55:30,38.9261767169679,-76.6331500005852,0.984252,,,125.98661656438,0,0,4.6559712776,10,4,16.204,125.98661656438,0.984252,0,4.6559712776,0,0,0,273.6, -2.6, 0,0,0,1292,1024,1028,1024,273.4,-19.7,97,4.064,4.067,4.077,4.063,0,0,14.006,78.71,125.98661656438,0.984252,32,GPSNovice,
42600,2021-04-17 20:55:31,38.9261767123637,-76.6331500653367,0.984252,,,125.98661656438,0,0,4.6378938492,10,4,16.204,125.98661656438,0.984252,0,4.6559712776,0,0,0,273.6, -2.9, 0,0,0,1359,1024,1028,1024,273.4,-20,97,4.064,4.067,4.077,4.063,0,0,14.006,78.71,125.98661656438,0.984252,32,GPSNovice,
42700,2021-04-17 20:55:31,38.9261768113561,-76.6331498605447,0.984252,,,125.98661656438,0,0.223694,4.691929284,10,4,16.204,125.98661656438,0.984252,0.223694,4.691929284,0,-0.223694,0,273.7, -3.7, 0,0,0,1355,1024,1028,1024,273.4,-20.6,97,4.064,4.067,4.077,4.063,0,0,14.006,78.71,125.98661656438,0.984252,32,GPSNovice,
42800,2021-04-17 20:55:31,38.9261768131755,-76.6331499644324,0.984252,,,125.98661656438,0,0.223694,4.6625329576,10,4,16.204,125.98661656438,0.984252,0.223694,4.691929284,0,-0.223694,0,273.6, -5.4, -0.1,0,0,1318,1024,1028,1024,273.4,-20.6,97,4.064,4.067,4.077,4.063,0,0,14.006,78.71,125.98661656438,0.984252,32,GPSNovice,
42900,2021-04-17 20:55:31,38.9261771244217,-76.6331500746932,0.984252,,,125.98661656438,0,0.447388,4.6212927988,11,4,16.204,125.98661656438,0.984252,0.447388,4.691929284,0,-0.447388,0,273.5, -6.2, -0.2,0,0,1312,1024,1028,1024,273.4,-20.9,97,4.064,4.067,4.077,4.063,0,0,14.006,78.71,125.98661656438,0.984252,32,GPSNovice,
43000,2021-04-17 20:55:31,38.9261771363307,-76.6331503959997,0.984252,,,125.98661656438,0,0.671082,4.53001983,11,4,16.204,125.98661656438,0.984252,0.671082,4.691929284,0,-0.671082,0,273.3, -6, -0.2,0,0,1288,1024,1028,1024,273.4,-21.3,97,4.064,4.067,4.077,4.063,0,0,14.006,78.71,125.98661656438,0.984252,32,GPSNovice,
43100,2021-04-17 20:55:31,38.9261772207656,-76.6331504991466,0.984252,,,125.98661656438,0,0.671082,4.4985565744,11,4,16.204,125.98661656438,0.984252,0.671082,4.691929284,0,-0.671082,0,273.3, -5.5, 0,0,0,1281,1024,1028,1024,273.4,-21.9,97,4.064,4.067,4.077,4.063,0,0,14.006,78.71,125.98661656438,0.984252,32,GPSNovice,
