time(millisecond),datetime(utc),latitude,longitude,height_above_takeoff(feet),height_above_ground_at_drone_location(feet),ground_elevation_at_drone_location(feet),altitude_above_seaLevel(feet),height_sonar(feet),speed(mph),distance(feet),satellites,gpslevel,voltage(v),max_altitude(feet),max_ascent(feet),max_speed(mph),max_distance(feet), xSpeed(mph), ySpeed(mph), zSpeed(mph), compass_heading(degrees), pitch(degrees), roll(degrees),isPhoto,isVideo,rc_elevator,rc_aileron,rc_throttle,rc_rudder,gimbal_heading(degrees),gimbal_pitch(degrees),battery_percent,voltageCell1,voltageCell2,voltageCell3,voltageCell4,voltageCell5,voltageCell6,current(A),battery_temperature(f),altitude(feet),ascent(feet),flycStateRaw,flycState,message
168200,2021-02-26 22:57:27,38.9259786668901,-76.6332154767797,0,Available with any HD 360 subscription,Available with any HD 360 subscription,127.66347882276,0,0,0,11,3,0,127.66347882276,0,0,0,0,0,0,274.8, -1.9, 5.9,0,0,1024,1024,1024,1024,279.5,-20.2,71,3.989,3.988,3.986,3.984,0,0,0,96.71,127.66347882276,0,32,GPSNovice,GEO: You are in a Warning Zone (Unpaved Airports). Fly with caution.
168300,2021-02-26 22:57:27,38.925978668804,-76.6332154773513,0,,,127.66347882276,0,0,0.00071686025916,11,3,0,127.66347882276,0,0,0.00071686025916,0,0,0,274.8, -1.9, 5.9,0,0,1024,1024,1024,1024,279.5,-20.2,71,3.989,3.988,3.986,3.984,0,0,0,96.71,127.66347882276,0,32,GPSNovice,
168400,2021-02-26 22:57:27,38.9259790699639,-76.6332155773198,0,,,127.66347882276,0,0,0.149804466736,11,3,0,127.66347882276,0,0,0.149804466736,0,0,0,274.8, -1.9, 5.9,0,0,1024,1024,1024,1024,279.5,-20.2,71,3.989,3.988,3.986,3.984,0,0,0,96.71,127.66347882276,0,32,GPSNovice,
168500,2021-02-26 22:57:27,38.9259790718145,-76.6332155771699,0,,,127.66347882276,0,0,0.1504593224,11,3,0,127.66347882276,0,0,0.1504593224,0,0,0,274.8, -2, 5.9,0,0,364,364,637,1579,279.5,-20.2,71,3.989,3.988,3.986,3.984,0,0,0,96.71,127.66347882276,0,32,GPSNovice,
168600,2021-02-26 22:57:27,38.9259797724795,-76.6332153736987,0,,,127.66347882276,0,0,0.40443242764,11,3,15.937,127.66347882276,0,0,0.40443242764,0,0,0,274.8, -2, 5.9,0,0,1024,1024,1042,1063,279.5,-20.2,71,3.989,3.988,3.986,3.984,0,0,1.536,96.71,127.66347882276,0,32,GPSNovice,Setting new Return-To-Home altitude to 30m (98 ft). Data Recorder File Index is 12. Setting new Maximum Flight Altitude to 30m (98 ft)
168700,2021-02-26 22:57:27,38.9259797727724,-76.6332153701422,0,,,127.66347882276,0,0,16.5165359616,11,3,15.937,127.66347882276,0,0,16.5165359616,0,0,0,274.8, -2, 5.9,0,0,1024,1024,1028,1024,276.9,-20.2,71,3.989,3.988,3.986,3.984,0,0,1.536,96.71,127.66347882276,0,32,GPSNovice,
168800,2021-02-26 22:57:27,38.9259803717076,-76.6332154669832,0,,,127.66347882276,0,0,16.5113850428,11,3,15.937,127.66347882276,0,0,16.5165359616,0,0,0,274.8, -2, 5.9,0,0,1024,1024,1028,1024,276.9,-20.2,71,3.989,3.988,3.986,3.984,0,0,1.536,96.71,127.66347882276,0,32,GPSNovice,
168900,2021-02-26 22:57:28,38.9259803706473,-76.6332154680277,0,,,127.66347882276,0,0,16.5110241504,11,3,15.937,127.66347882276,0,0,16.5165359616,0,0,0,274.8, -2, 5.9,0,0,1024,1024,1028,1024,276.1,-20.2,71,3.989,3.988,3.986,3.984,0,0,1.536,96.71,127.66347882276,0,32,GPSNovice,
169000,2021-02-26 22:57:28,38.9259809718321,-76.6332154711989,0,,,127.66347882276,0,0,16.5353023664,11,3,15.937,127.66347882276,0,0,16.5353023664,0,0,0,274.8, -2, 5.9,0,0,1024,1024,1028,1024,275.9,-20.2,71,3.989,3.988,3.986,3.984,0,0,1.536,96.71,127.66347882276,0,32,GPSNovice,
169100,2021-02-26 22:57:28,38.9259809709792,-76.6332154702345,0,,,127.66347882276,0,0,16.5355320252,11,3,15.937,127.66347882276,0,0,16.5355320252,0,0,0,274.8, -2, 5.9,0,0,1024,1024,1028,1024,275.9,-20.2,71,3.989,3.988,3.986,3.984,0,0,1.536,96.71,127.66347882276,0,32,GPSNovice,
169200,2021-02-26 22:57:28,38.9259813747741,-76.6332154682962,0,,,127.66347882276,0,0,16.5545608972,11,3,15.937,127.66347882276,0,0,16.5545608972,0,0,0,274.8, -2, 5.9,0,0,1024,1024,1028,1024,275.7,-20.2,71,3.989,3.988,3.986,3.984,0,0,1.536,96.71,127.66347882276,0,32,GPSNovice,
169300,2021-02-26 22:57:28,38.9259813741655,-76.6332154653431,0,,,127.66347882276,0,0,16.5553811072,11,3,15.937,127.66347882276,0,0,16.5553811072,0,0,0,274.8, -2, 5.9,0,0,1024,1024,1028,1024,275.7,-20.2,71,3.989,3.988,3.986,3.984,0,0,1.536,96.71,127.66347882276,0,32,GPSNovice,
169400,2021-02-26 22:57:28,38.9259812751859,-76.6332157657265,0,,,127.66347882276,0,0,16.4661422592,11,3,15.937,127.66347882276,0,0,16.5553811072,0,0,0,274.8, -2, 5.9,0,0,1024,1024,1028,1024,275.6,-20.2,71,3.989,3.988,3.986,3.984,0,0,1.536,96.71,127.66347882276,0,32,GPSNovice,
169500,2021-02-26 22:57:28,38.9259812747068,-76.6332157638102,0,,,127.66347882276,0,0,16.4666671936,11,3,15.937,127.66347882276,0,0,16.5553811072,0,0,0,274.7, -2.2, 5.9,0,0,1024,1024,1028,1024,275.5,-20.2,71,3.989,3.988,3.986,3.984,0,0,1.536,96.71,127.66347882276,0,32,GPSNovice,
169600,2021-02-26 22:57:28,38.9259812727653,-76.6332158752967,0,,,127.66347882276,0,0,16.435203938,11,3,15.937,127.66347882276,0,0,16.5553811072,0,0,0,274.7, -2.3, 5.9,0,0,1024,1024,1028,1024,275.5,-20.2,71,3.992,3.991,3.989,3.987,0,0,1.306,96.71,127.66347882276,0,32,GPSNovice,
169700,2021-02-26 22:57:28,38.9259812727216,-76.6332158859906,0,,,127.66347882276,0,0,16.4321855652,11,3,15.937,127.66347882276,0,0,16.5553811072,0,0,0,274.7, -2.6, 5.9,0,0,1024,1024,1029,1024,275.4,-20.2,71,3.992,3.991,3.989,3.987,0,0,1.306,96.71,127.66347882276,0,32,GPSNovice,
169800,2021-02-26 22:57:28,38.9259815732401,-76.6332160917396,0,,,127.66347882276,0,0,16.388780052,11,3,15.937,127.66347882276,0,0,16.5553811072,0,0,0,274.7, -2.8, 5.9,0,0,1024,1024,1028,1024,275.4,-20.2,71,3.992,3.991,3.989,3.987,0,0,1.306,96.71,127.66347882276,0,32,GPSNovice,
169900,2021-02-26 22:57:29,38.9259815722614,-76.6332160976181,0,,,127.66347882276,0,0,16.3870740152,11,3,15.937,127.66347882276,0,0,16.5553811072,0,0,0,274.7, -2.5, 5.9,0,0,1024,1024,1028,1024,275.4,-20.2,71,3.992,3.991,3.989,3.987,0,0,1.306,96.71,127.66347882276,0,32,GPSNovice,
170000,2021-02-26 22:57:29,38.9259818693014,-76.6332162813082,0,,,127.66347882276,0,0,16.3505254576,11,3,15.937,127.66347882276,0,0,16.5553811072,0,0,0,274.7, -2.5, 5.9,0,0,1024,1024,1029,1024,275.4,-20.3,71,3.992,3.991,3.989,3.987,0,0,1.306,96.71,127.66347882276,0,32,GPSNovice,
170100,2021-02-26 22:57:29,38.925981871428,-76.6332162782057,0,,,127.66347882276,0,0,16.3515097096,11,3,15.937,127.66347882276,0,0,16.5553811072,0,0,0,274.7, -2.8, 5.9,0,0,1024,1024,1028,1024,275.4,-20.3,71,3.992,3.991,3.989,3.987,0,0,1.306,96.71,127.66347882276,0,32,GPSNovice,
170200,2021-02-26 22:57:29,38.9259820742241,-76.6332164908093,0,,,127.66347882276,0,0,16.3025267684,11,3,15.937,127.66347882276,0,0,16.5553811072,0,0,0,274.6, -2.9, 5.9,0,0,1024,1024,1028,1024,275.4,-20.2,71,3.992,3.991,3.989,3.987,0,0,1.306,96.71,127.66347882276,0,10,Assisted_Takeoff,
170300,2021-02-26 22:57:29,38.9259820744347,-76.6332164887354,0,,,127.66347882276,0,0,16.303150128,11,3,15.937,127.66347882276,0,0,16.5553811072,0,0,0,274.7, -2.3, 5.7,0,0,1024,1024,1028,1024,275.4,-20.2,71,3.992,3.991,3.989,3.987,0,0,1.306,96.71,127.66347882276,0,10,Assisted_Takeoff,
170400,2021-02-26 22:57:29,38.9259822669228,-76.6332168693427,0,,,127.66347882276,0,0,16.2068902824,11,3,15.937,127.66347882276,0,0,16.5553811072,0,0,0,274.7, -2.1, 5.7,0,0,1024,1024,1028,1024,275.4,-20.2,71,3.992,3.991,3.989,3.987,0,0,1.306,96.71,127.66347882276,0,10,Assisted_Takeoff,
170500,2021-02-26 22:57:29,38.9259822646338,-76.633216863322,0,,,127.66347882276,0,0,16.2084322772,11,3,15.937,127.66347882276,0,0,16.5553811072,0,0,0,274.7, -2.2, 5.7,0,0,1024,1024,1028,1024,275.4,-20.2,71,3.992,3.991,3.989,3.987,0,0,1.306,96.71,127.66347882276,0,10,Assisted_Takeoff,
170600,2021-02-26 22:57:29,38.925982669432,-76.6332171738184,0,,,127.66347882276,0,0,16.144685556,11,3,15.831,127.66347882276,0,0,16.5553811072,0,0,0,274.7, -2.1, 5.6,0,0,1024,1024,1028,1024,275.4,-20.2,71,3.98,3.979,3.977,3.971,0,0,3.054,96.71,127.66347882276,0,10,Assisted_Takeoff,
170700,2021-02-26 22:57:29,38.9259826692479,-76.6332171721375,0,,,127.66347882276,0,0,16.1451448736,11,3,15.831,127.66347882276,0,0,16.5553811072,0,0,0,274.7, -2.1, 5.6,0,0,1024,1024,1033,1024,275.3,-20.2,71,3.98,3.979,3.977,3.971,0,0,3.054,96.71,127.66347882276,0,10,Assisted_Takeoff,
170800,2021-02-26 22:57:29,38.9259829757801,-76.6332173712013,0,,,127.66347882276,0,0,16.1080057648,11,4,15.831,127.66347882276,0,0,16.5553811072,0,0,0,274.7, -2.1, 5.6,0,0,1024,1024,1032,1024,275.3,-20.2,71,3.98,3.979,3.977,3.971,0,0,3.054,96.71,127.66347882276,0,10,Assisted_Takeoff,
170900,2021-02-26 22:57:29,38.9259829773141,-76.6332173703289,0,,,127.66347882276,0,0,16.1083338488,11,4,15.831,127.66347882276,0,0,16.5553811072,0,0,0,274.7, -2, 5.6,0,0,1024,1024,1030,1024,275.3,-20.2,71,3.98,3.979,3.977,3.971,0,0,3.054,96.71,127.66347882276,0,10,Assisted_Takeoff,
171000,2021-02-26 22:57:30,38.9259834799717,-76.633217472035,0,,,127.66347882276,0,0,16.1121068148,11,4,15.831,127.66347882276,0,0,16.5553811072,0,0,0,274.7, -2.1, 5.6,0,0,1024,1024,1032,1024,275.3,-20.2,71,3.98,3.979,3.977,3.971,0,0,3.054,96.71,127.66347882276,0,10,Assisted_Takeoff,
171100,2021-02-26 22:57:30,38.9259834832578,-76.6332174753526,0,,,127.66347882276,0,0,16.11138503,11,4,15.831,127.66347882276,0,0,16.5553811072,0,0,0,274.7, -2, 5.6,0,0,1024,1024,1032,1024,275.3,-20.2,71,3.98,3.979,3.977,3.971,0,0,3.054,96.71,127.66347882276,0,10,Assisted_Takeoff,
171200,2021-02-26 22:57:30,38.9259837838782,-76.6332176765901,0,,,127.66347882276,0,0,16.0755254488,11,4,15.831,127.66347882276,0,0,16.5553811072,0,0,0,274.7, -2.1, 5.6,0,0,1024,1024,1104,1024,275.3,-20.2,71,3.98,3.979,3.977,3.971,0,0,3.054,96.71,127.66347882276,0,10,Assisted_Takeoff,
171300,2021-02-26 22:57:30,38.9259837827065,-76.6332176839345,0,,,127.66347882276,0,0,16.0734257112,11,4,15.831,127.66347882276,0,0,16.5553811072,0,0,0,274.7, -2.1, 5.6,0,0,1024,1024,1187,1024,275.3,-20.2,71,3.98,3.979,3.977,3.971,0,0,3.054,96.71,127.66347882276,0,10,Assisted_Takeoff,
171400,2021-02-26 22:57:30,38.9259840831152,-76.6332178873532,0,,,127.66347882276,0,0,16.0377957888,11,4,15.831,127.66347882276,0,0,16.5553811072,0,0,0,274.7, -2, 5.6,0,0,1024,1024,1214,1024,275.3,-20.2,71,3.98,3.979,3.977,3.971,0,0,3.054,96.71,127.66347882276,0,10,Assisted_Takeoff,
171500,2021-02-26 22:57:30,38.9259840802088,-76.6332178926798,0,,,127.66347882276,0,0,16.0361225604,11,4,15.831,127.66347882276,0,0,16.5553811072,0,0,0,274.7, -2.1, 5.5,0,0,1024,1024,1213,1024,275.3,-20.2,71,3.98,3.979,3.977,3.971,0,0,3.054,96.71,127.66347882276,0,10,Assisted_Takeoff,
171600,2021-02-26 22:57:30,38.9259846767387,-76.633218097803,0,,,127.66347882276,0,0,16.0231632424,12,4,15.831,127.66347882276,0,0,16.5553811072,0,0,0,274.7, -2.2, 5.3,0,0,1024,1024,1194,1024,275.3,-20.2,71,3.98,3.979,3.977,3.971,0,0,3.054,96.71,127.66347882276,0,10,Assisted_Takeoff,
171700,2021-02-26 22:57:30,38.92598466953,-76.6332181039602,0,,,127.66347882276,0,0,16.0209322712,12,4,15.831,127.66347882276,0,0,16.5553811072,0,0,0,274.7, -2.3, 4.9,0,0,1024,1024,1185,1024,275.3,-20.2,71,3.98,3.979,3.977,3.971,0,0,3.054,96.71,127.66347882276,0,10,Assisted_Takeoff,
171800,2021-02-26 22:57:30,38.92598506417,-76.6332183086607,0,,,127.66347882276,0,0,15.9949808268,12,4,15.831,127.66347882276,0,0,16.5553811072,0,0,0,274.7, -2.4, 4.3,0,0,1024,1024,1185,1024,275.3,-20.2,71,3.98,3.979,3.977,3.971,0,0,3.054,96.71,127.66347882276,0,10,Assisted_Takeoff,
171900,2021-02-26 22:57:31,38.9259850528582,-76.6332183150782,0,,,127.66347882276,0,0,15.992290538,12,4,15.831,127.66347882276,0,0,16.5553811072,0,0,0,274.6, -2.3, 3.1,0,0,1024,1024,1180,1024,275.2,-20.2,71,3.98,3.979,3.977,3.971,0,0,3.054,96.71,127.66347882276,0,10,Assisted_Takeoff,
172000,2021-02-26 22:57:31,38.9259856369275,-76.6332186197846,0,,,127.66347882276,0,0,15.956037256,12,4,15.831,127.66347882276,0,0,16.5553811072,0,0,0,274.5, -1.6, 1.4,0,0,1024,1024,1164,1037,275.2,-20.2,71,3.98,3.979,3.977,3.971,0,0,3.054,96.71,127.66347882276,0,10,Assisted_Takeoff,
172100,2021-02-26 22:57:31,38.925985612073,-76.6332186238936,0,,,127.66347882276,0,0,15.9527892244,12,4,15.831,127.66347882276,0,0,16.5553811072,0,0,0,274.2, -0.6, -0.6,0,0,1024,1024,1162,1061,275.2,-20.2,71,3.98,3.979,3.977,3.971,0,0,3.054,96.71,127.66347882276,0,10,Assisted_Takeoff,
172200,2021-02-26 22:57:31,38.9259858894844,-76.6332188317457,0,,,127.66347882276,0,0,15.9192590396,12,4,15.831,127.66347882276,0,0,16.5553811072,0,0,-0.223694,274.1, 0.3, -1.8,0,0,1024,1024,1138,1101,275.2,-20.2,71,3.98,3.979,3.977,3.971,0,0,3.054,96.71,127.66347882276,0,32,GPSNovice,
172300,2021-02-26 22:57:31,38.9259858333377,-76.6332188379978,0,,,127.66347882276,0,0.223694,15.9126645512,12,4,15.831,127.66347882276,0,0.223694,16.5553811072,-0.223694,0,-0.447388,274.3, 0.2, -1.1,0,0,1024,1024,1065,1142,275.8,-20.2,71,3.98,3.979,3.977,3.971,0,0,3.054,96.71,127.66347882276,0,32,GPSNovice,
172400,2021-02-26 22:57:31,38.9259861998034,-76.633219139368,0,,,127.66347882276,0.328084,0.223694,15.8620083816,12,4,15.831,127.66347882276,0,0.223694,16.5553811072,-0.223694,0,-0.447388,274.6, 0.2, -0.4,0,0,1024,1024,1041,1175,276.4,-20.2,71,3.98,3.979,3.977,3.971,0,0,3.054,96.71,127.66347882276,0,32,GPSNovice,
172500,2021-02-26 22:57:31,38.9259860891839,-76.6332191641816,0,,,127.66347882276,0.328084,0.223694,15.8452760976,12,4,15.831,127.66347882276,0,0.223694,16.5553811072,-0.223694,0,-0.447388,275.2, 0.2, 0,0,0,1024,1024,1041,1210,277.2,-20.2,71,3.98,3.979,3.977,3.971,0,0,3.054,96.71,127.66347882276,0,32,GPSNovice,
172600,2021-02-26 22:57:31,38.925986488941,-76.6332195672235,0,,,127.66347882276,0.328084,0.223694,15.7708994548,12,4,15.857,127.66347882276,0,0.223694,16.5553811072,-0.223694,0,-0.223694,275.9, 0.2, 0.2,0,0,1024,1024,1043,1286,277.2,-20.2,71,3.974,3.974,3.971,3.965,0,0,4.026,96.71,127.66347882276,0,32,GPSNovice,
172800,2021-02-26 22:57:31,38.9259864130972,-76.6332196880796,0,,,127.66347882276,0.328084,0.223694,15.7306763564,10,4,15.857,127.66347882276,0,0.223694,16.5553811072,-0.223694,0,-0.223694,277.9, 0.2, 0.5,0,0,1024,1024,1040,1313,280.8,-20.2,71,3.974,3.974,3.971,3.965,0,0,4.026,96.71,127.66347882276,0,32,GPSNovice,
172900,2021-02-26 22:57:32,38.9259863430062,-76.6332197368623,0,,,127.66347882276,0.328084,0,15.7108272744,10,4,15.857,127.66347882276,0,0.223694,16.5553811072,0,0,0,279.4, 0.4, 0.7,0,0,1024,1024,1037,1311,282.3,-20.2,71,3.974,3.974,3.971,3.965,0,0,4.026,96.71,127.66347882276,0,32,GPSNovice,
173000,2021-02-26 22:57:32,38.9259865118208,-76.6332197942369,0,,,127.66347882276,0.328084,0,15.7107288492,10,4,15.857,127.66347882276,0,0.223694,16.5553811072,0,0,0,281, 0.4, 0.8,0,0,1024,1024,1033,1288,283.8,-20.2,71,3.974,3.974,3.971,3.965,0,0,4.026,96.71,127.66347882276,0,32,GPSNovice,
173100,2021-02-26 22:57:32,38.9259865193057,-76.6332197981957,0,,,127.66347882276,0.328084,0,15.7103351484,10,4,15.857,127.66347882276,0,0.223694,16.5553811072,0,0,0,282.8, 0.4, 1.1,0,0,1024,1024,1031,1249,285.3,-20.2,71,3.974,3.974,3.971,3.965,0,0,4.026,96.71,127.66347882276,0,32,GPSNovice,
173200,2021-02-26 22:57:32,38.925986384156,-76.6332198742883,0,,,127.66347882276,0.328084,0,15.6768705804,11,4,15.857,127.66347882276,0,0.223694,16.5553811072,0,0,0,284.5, 0.4, 1.1,0,0,1024,1024,1031,1249,286.7,-20.2,71,3.974,3.974,3.971,3.965,0,0,4.026,96.71,127.66347882276,0,32,GPSNovice,
173300,2021-02-26 22:57:32,38.9259863973891,-76.6332198708546,0,,,127.66347882276,0.328084,0,15.6790359348,11,4,15.857,127.66347882276,0,0.223694,16.5553811072,0,0,0,286.1, 0.3, 1.2,0,0,1024,1024,1033,1097,287.6,-20.2,71,3.974,3.974,3.971,3.965,0,0,4.026,96.71,127.66347882276,0,32,GPSNovice,
173400,2021-02-26 22:57:32,38.9259862807162,-76.6332198859945,0,,,127.66347882276,0,0,15.6641409212,11,4,15.857,127.66347882276,0,0.223694,16.5553811072,0,0,0,287.1, 0.4, 1.4,0,0,1024,1024,1094,1024,287.6,-20.2,71,3.974,3.974,3.971,3.965,0,0,4.026,96.71,127.66347882276,0,32,GPSNovice,
173500,2021-02-26 22:57:32,38.9259862861124,-76.6332198894886,0,,,127.66347882276,0,0,15.6636487952,11,4,15.857,127.66347882276,0,0.223694,16.5553811072,0,0,0,287.4, 0.3, 1.6,0,0,1024,1024,1100,1021,287.6,-20.2,71,3.974,3.974,3.971,3.965,0,0,4.026,96.71,127.66347882276,0,32,GPSNovice,
173600,2021-02-26 22:57:32,38.9259859820051,-76.6332199731617,0,,,127.66347882276,0,0,15.6130910508,10,4,15.591,127.66347882276,0,0.223694,16.5553811072,0,0,0,287.4, 0.3, 1.7,0,0,1024,1024,1091,949,287.5,-20.2,71,3.927,3.927,3.922,3.906,0,0,11.322,96.71,127.66347882276,0,32,GPSNovice,
173700,2021-02-26 22:57:32,38.92598602975,-76.633219946389,0,,,127.66347882276,0,0,15.6247380328,10,4,15.591,127.66347882276,0,0.223694,16.5553811072,0,0,0,287.2, 0.2, 1.4,0,0,1024,1024,1102,1024,287.3,-20.2,71,3.927,3.927,3.922,3.906,0,0,11.322,96.71,127.66347882276,0,32,GPSNovice,
173800,2021-02-26 22:57:32,38.9259858732848,-76.6332200132385,0,,,127.66347882276,0,0,15.592356142,10,4,15.591,127.66347882276,0,0.223694,16.5553811072,0,0,0,286.9, 0.2, 1.1,0,0,1024,1024,1182,1024,287.3,-20.2,71,3.927,3.927,3.922,3.906,0,0,11.322,96.71,127.66347882276,0,32,GPSNovice,
173900,2021-02-26 22:57:32,38.9259858960937,-76.6332200070431,0,,,127.66347882276,0,0,15.5960962996,10,4,15.591,127.66347882276,0,0.223694,16.5553811072,0,0,0,286.7, 0.3, 1,0,0,1024,1024,1225,1024,287.3,-20.2,71,3.927,3.927,3.922,3.906,0,0,11.322,96.71,127.66347882276,0,32,GPSNovice,
174000,2021-02-26 22:57:33,38.9259858891033,-76.633220016184,0,,,127.66347882276,0,0,15.5929466932,11,4,15.591,127.66347882276,0,0.223694,16.5553811072,0,0,0,286.6, 0.3, 1.1,0,0,1024,1024,1240,1024,287.3,-20.2,71,3.927,3.927,3.922,3.906,0,0,11.322,96.71,127.66347882276,0,32,GPSNovice,
174100,2021-02-26 22:57:33,38.9259858738011,-76.6332200216801,0,,,127.66347882276,0,0,15.5900923624,11,4,15.591,127.66347882276,0,0.223694,16.5553811072,0,0,0,286.5, 0.2, 1.2,0,0,1024,1024,1250,1024,287.2,-20.2,71,3.927,3.927,3.922,3.906,0,0,11.322,96.71,127.66347882276,0,32,GPSNovice,
174200,2021-02-26 22:57:33,38.9259857714777,-76.6332200204989,0,,,127.66347882276,0,0,15.581365328,10,4,15.591,127.66347882276,0,0.223694,16.5553811072,0,0,0,286.5, 0.3, 1.3,0,0,1024,1024,1242,1024,287.2,-20.2,71,3.927,3.927,3.922,3.906,0,0,11.322,96.71,127.66347882276,0,32,GPSNovice,
174300,2021-02-26 22:57:33,38.9259857703168,-76.6332200209468,0,,,127.66347882276,0,0,15.5811356692,10,4,15.591,127.66347882276,0,0.223694,16.5553811072,0,0,-0.223694,286.5, 0.3, 1.3,0,0,1024,1024,1242,1024,287.2,-20.2,71,3.927,3.927,3.922,3.906,0,0,11.322,96.71,127.66347882276,0,32,GPSNovice,
174400,2021-02-26 22:57:33,38.9259853771256,-76.6332200167076,0,,,127.66347882276,0,0,15.5483600776,10,4,15.591,127.66347882276,0,0.223694,16.5553811072,0,0,-0.223694,286.5, 0.3, 1.4,0,0,1024,1024,1242,1024,287.2,-20.2,71,3.927,3.927,3.922,3.906,0,0,11.322,96.71,127.66347882276,0,32,GPSNovice,
174500,2021-02-26 22:57:33,38.9259853839413,-76.6332200091462,0,,,127.66347882276,0,0,15.551017558,10,4,15.591,127.66347882276,0,0.223694,16.5553811072,0,0,-0.223694,286.5, 0.3, 1.3,0,0,1024,1024,1246,1024,287.2,-20.2,71,3.927,3.927,3.922,3.906,0,0,11.322,96.71,127.66347882276,0,32,GPSNovice,
174600,2021-02-26 22:57:33,38.9259847843085,-76.6332197028168,0,,,127.66347882276,0,0,15.5865162468,10,4,15.511,127.66347882276,0,0.223694,16.5553811072,0,0,0,286.6, 0.3, 1.3,0,0,1024,1024,1251,1035,287.2,-20.2,71,3.897,3.9,3.896,3.879,0,0,13.462,96.71,127.66347882276,0,32,GPSNovice,
174700,2021-02-26 22:57:33,38.9259847916131,-76.6332196976292,0,,,127.66347882276,0,0,15.5885175592,10,4,15.511,127.66347882276,0,0.223694,16.5553811072,0,0,0,286.6, 0.2, 1.3,0,0,1024,1024,1178,1050,287.2,-20.2,71,3.897,3.9,3.896,3.879,0,0,13.462,96.71,127.66347882276,0,32,GPSNovice,
174800,2021-02-26 22:57:33,38.9259841832097,-76.6332192964292,0,,,127.66347882276,0,0,15.6531501072,10,4,15.511,127.66347882276,0,0.223694,16.5553811072,0,0,-0.223694,286.7, 0.2, 1.4,0,0,1024,1133,1029,1024,287.2,-20.2,71,3.897,3.9,3.896,3.879,0,0,13.462,96.71,127.66347882276,0,32,GPSNovice,
174900,2021-02-26 22:57:34,38.9259841821574,-76.633219301003,0,,,127.66347882276,0,0,15.6518049628,10,4,15.511,127.66347882276,0,0.223694,16.5553811072,0,0,-0.223694,286.7, 0.1, 1.6,0,0,1024,1198,1029,1024,287.2,-20.2,71,3.897,3.9,3.896,3.879,0,0,13.462,96.71,127.66347882276,0,32,GPSNovice,
175000,2021-02-26 22:57:34,38.9259839907297,-76.6332191058527,0,,,127.66347882276,0,0,15.6920608696,11,4,15.511,127.66347882276,0,0.223694,16.5553811072,0,0,0,286.7, 0.2, 2,0,0,1024,1347,1029,1024,287.2,-20.2,71,3.897,3.9,3.896,3.879,0,0,13.462,96.71,127.66347882276,0,32,GPSNovice,
175100,2021-02-26 22:57:34,38.9259840040216,-76.6332191102687,0,,,127.66347882276,0,0,15.6917984024,11,4,15.511,127.66347882276,0,0.223694,16.5553811072,0,0,0,286.7, 0.1, 3.3,0,0,1024,1401,1029,1024,287.2,-20.2,71,3.897,3.9,3.896,3.879,0,0,13.462,96.71,127.66347882276,0,32,GPSNovice,
175200,2021-02-26 22:57:34,38.9259837305495,-76.6332190030459,0,,,127.66347882276,0,0,15.7021986652,11,4,15.511,127.66347882276,0,0.223694,16.5553811072,0,0,0,286.7, 0.1, 6,0,0,1024,1422,1029,1024,287.2,-20.2,71,3.897,3.9,3.896,3.879,0,0,13.462,96.71,127.66347882276,0,32,GPSNovice,
175300,2021-02-26 22:57:34,38.9259838133437,-76.6332189785247,0,,,127.66347882276,0,0.223694,15.7148627076,11,4,15.511,127.66347882276,0,0.223694,16.5553811072,0.223694,0,0,286.6, 0.1, 7.6,0,0,1024,1230,1029,1024,287.2,-20.2,71,3.897,3.9,3.896,3.879,0,0,13.462,96.71,127.66347882276,0,32,GPSNovice,
175400,2021-02-26 22:57:34,38.9259837585213,-76.633218836276,0,,,127.66347882276,0,0.447388,15.7506238636,10,4,15.511,127.66347882276,0,0.447388,16.5553811072,0.447388,0,0,286.6, 0.2, 8.4,0,0,1024,1024,1029,1024,287.2,-20.2,71,3.897,3.9,3.896,3.879,0,0,13.462,96.71,127.66347882276,0,32,GPSNovice,
175500,2021-02-26 22:57:34,38.9259840535772,-76.6332187449691,0,,,127.66347882276,0,0.671082,15.7970149412,10,4,15.511,127.66347882276,0,0.671082,16.5553811072,0.671082,0,0,286.6, 0.3, 5.8,0,0,1024,1024,1029,1024,287.2,-20.2,71,3.897,3.9,3.896,3.879,0,0,13.462,96.71,127.66347882276,0,32,GPSNovice,
175600,2021-02-26 22:57:34,38.9259837403017,-76.6332181764703,0,,,127.66347882276,0,0.9171454,15.9332026096,10,4,15.458,127.66347882276,0,0.9171454,16.5553811072,0.894776,0.223694,0,286.6, 0.2, 1.3,0,0,1024,1024,1029,1024,287.2,-20.2,71,3.897,3.9,3.896,3.879,0,0,13.462,96.71,127.66347882276,0,32,GPSNovice,
175700,2021-02-26 22:57:34,38.925984098772,-76.6332180614455,0,,,127.66347882276,0,0.671082,15.9904532676,10,4,15.458,127.66347882276,0,0.9171454,16.5553811072,0.671082,0,0,286.8, 0.2, 0.3,0,0,1024,1024,1029,1024,287.2,-20.2,71,3.897,3.9,3.896,3.879,0,0,13.462,96.71,127.66347882276,0,32,GPSNovice,
175800,2021-02-26 22:57:34,38.9259841727467,-76.6332175424186,0,,,127.66347882276,0,0.671082,16.1402236136,10,4,15.458,127.66347882276,0,0.9171454,16.5553811072,0.671082,0,0,286.8, 0.3, -0.4,0,0,1024,1024,1029,1024,287.2,-20.2,71,3.897,3.9,3.896,3.879,0,0,13.462,96.71,127.66347882276,0,32,GPSNovice,
175900,2021-02-26 22:57:35,38.9259844635645,-76.6332174623298,0,,,127.66347882276,0,0.671082,16.1836619352,10,4,15.458,127.66347882276,0,0.9171454,16.5553811072,0.671082,0,0,286.8, 0.3, -0.9,0,0,1024,1024,1029,1024,287.2,-20.2,71,3.897,3.9,3.896,3.879,0,0,13.462,96.71,127.66347882276,0,32,GPSNovice,
176000,2021-02-26 22:57:35,38.9259841824272,-76.6332175399597,0,,,127.66347882276,0,0.447388,16.1416015664,10,4,15.458,127.66347882276,0,0.9171454,16.5553811072,0.447388,0,0,286.8, 0.3, -1.1,0,0,1024,1024,1029,1024,287.2,-20.2,71,3.897,3.9,3.896,3.879,0,0,13.462,96.71,127.66347882276,0,32,GPSNovice,
176100,2021-02-26 22:57:35,38.9259843826011,-76.6332175172615,0,,,127.66347882276,0,0.223694,16.1624349004,10,4,15.458,127.66347882276,0,0.9171454,16.5553811072,0.223694,0,0,286.8, 0.3, -0.5,0,0,1024,1024,1029,1024,287.1,-20.2,71,3.897,3.9,3.896,3.879,0,0,13.462,96.71,127.66347882276,0,32,GPSNovice,
176200,2021-02-26 22:57:35,38.9259841477788,-76.6332172604784,0,,,127.66347882276,0,0.223694,16.2168968444,10,4,15.458,127.66347882276,0,0.9171454,16.5553811072,0.223694,0,0,286.8, 0.5, -0.4,0,0,1024,1024,1029,1024,287.1,-20.2,71,3.897,3.9,3.896,3.879,0,0,13.462,96.71,127.66347882276,0,32,GPSNovice,
176300,2021-02-26 22:57:35,38.9259842411374,-76.6332172741136,0,,,127.66347882276,0,0,16.2197839836,10,4,15.458,127.66347882276,0,0.9171454,16.5553811072,0,0,0,286.8, 0.6, -0.3,0,0,1024,1024,1036,1024,287.1,-20.2,71,3.897,3.9,3.896,3.879,0,0,13.462,96.71,127.66347882276,0,32,GPSNovice,
176400,2021-02-26 22:57:35,38.9259838346849,-76.6332172347214,0,,,127.66347882276,0,0,16.2021986812,9,4,15.458,127.66347882276,0,0.9171454,16.5553811072,0,0,0,286.9, 0.3, 0.3,0,0,1024,1024,1099,1024,287.1,-20.2,71,3.897,3.9,3.896,3.879,0,0,13.462,96.71,127.66347882276,0,32,GPSNovice,
176500,2021-02-26 22:57:35,38.9259837310461,-76.6332172504682,0,,,127.66347882276,0,0,16.1907485496,9,4,15.458,127.66347882276,0,0.9171454,16.5553811072,0,0,0,286.9, 0.1, 1.1,0,0,1024,1024,1123,1024,287.1,-20.2,71,3.897,3.9,3.896,3.879,0,0,13.462,96.71,127.66347882276,0,32,GPSNovice,
176600,2021-02-26 22:57:35,38.9259835739472,-76.6332171632262,0,,,127.66347882276,0,0,16.2045280776,11,4,15.484,127.66347882276,0,0.9171454,16.5553811072,0,0,0,286.8, 0.1, 1.5,0,0,1024,1024,1138,1024,287.1,-20.2,71,3.887,3.89,3.886,3.871,0,0,14.34,96.71,127.66347882276,0,32,GPSNovice,
176700,2021-02-26 22:57:35,38.9259835983692,-76.6332171694495,0,,,127.66347882276,0,0,16.2044296524,11,4,15.484,127.66347882276,0,0.9171454,16.5553811072,0,0,0,286.8, 0.2, 1.4,0,0,1024,1024,1131,1029,287.1,-20.2,71,3.887,3.89,3.886,3.871,0,0,14.34,96.71,127.66347882276,0,32,GPSNovice,
176800,2021-02-26 22:57:35,38.9259836248826,-76.633217069994,0,,,127.66347882276,0,0,16.233924404,10,4,15.484,127.66347882276,0,0.9171454,16.5553811072,0,0,0,286.8, 0.3, 1.1,0,0,1024,1024,1036,1024,287.1,-20.2,71,3.887,3.89,3.886,3.871,0,0,14.34,96.71,127.66347882276,0,32,GPSNovice,
176900,2021-02-26 22:57:36,38.9259836609451,-76.6332170597809,0,,,127.66347882276,0,0,16.2392065564,10,4,15.484,127.66347882276,0,0.9171454,16.5553811072,0,0,0,286.8, 0.4, 1,0,0,1024,1024,1029,1024,287.1,-20.2,71,3.887,3.89,3.886,3.871,0,0,14.34,96.71,127.66347882276,0,32,GPSNovice,
177000,2021-02-26 22:57:36,38.9259836640051,-76.6332169582026,0,,,127.66347882276,0,0,16.2677498644,7,3,15.484,127.66347882276,0,0.9171454,16.5553811072,0,0,0,286.8, 0.3, 0.9,0,0,1024,1024,1030,1024,287.1,-20.2,71,3.887,3.89,3.886,3.871,0,0,14.34,96.71,127.66347882276,0,32,GPSNovice,
177100,2021-02-26 22:57:36,38.9259836633896,-76.6332169521117,0,,,127.66347882276,0,0,16.2694230928,7,3,15.484,127.66347882276,0,0.9171454,16.5553811072,0,0,0,286.8, 0.4, 1,0,0,1024,1024,1029,1024,287.1,-20.2,71,3.887,3.89,3.886,3.871,0,0,14.34,96.71,127.66347882276,0,32,GPSNovice,
177200,2021-02-26 22:57:36,38.9259833517224,-76.633216954566,0,,,127.66347882276,0,0,16.2482288664,7,3,15.484,127.66347882276,0,0.9171454,16.5553811072,0,0,0,286.7, 0.4, 0.9,0,0,1024,1024,1029,1024,287.1,-20.2,71,3.887,3.89,3.886,3.871,0,0,14.34,96.71,127.66347882276,0,32,GPSNovice,
177300,2021-02-26 22:57:36,38.925983340795,-76.6332169513263,0,,,127.66347882276,0,0,16.2484257168,7,3,15.484,127.66347882276,0,0.9171454,16.5553811072,0,0,0,286.7, 0.3, 0.9,0,0,1024,1024,1029,1024,287.1,-20.2,71,3.887,3.89,3.886,3.871,0,0,14.34,96.71,127.66347882276,0,32,GPSNovice,
177400,2021-02-26 22:57:36,38.9259833290931,-76.6332169522529,0.328084,,,127.99156282276,0,0,16.2474414648,6,2,15.484,127.99156282276,0.328084,0.9171454,16.5553811072,0,0,0,286.6, 0.3, 1,0,0,1024,1024,1029,1024,287.1,-20.2,71,3.887,3.89,3.886,3.871,0,0,14.34,96.71,127.99156282276,0.328084,32,GPSNovice,
177500,2021-02-26 22:57:36,38.9259833237879,-76.6332169563602,0.328084,,,127.99156282276,0,0,16.2459322784,6,2,15.484,127.99156282276,0.328084,0.9171454,16.5553811072,0,0,0,286.6, 0.3, 1.1,0,0,1024,1024,1029,1024,287.1,-20.2,71,3.887,3.89,3.886,3.871,0,0,14.34,96.71,127.99156282276,0.328084,32,GPSNovice,
177600,2021-02-26 22:57:36,38.9259831297533,-76.6332169561916,0.328084,,,127.99156282276,0,0,16.2336619368,8,2,15.431,127.99156282276,0.328084,0.9171454,16.5553811072,0,0,0,286.5, 0.4, 1.1,0,0,1024,1024,1009,1024,287.1,-20.2,71,3.879,3.883,3.879,3.862,0,0,14.206,96.71,127.99156282276,0.328084,32,GPSNovice,
177700,2021-02-26 22:57:36,38.9259831325816,-76.6332169557771,0.328084,,,127.99156282276,0,0,16.2339572124,8,2,15.431,127.99156282276,0.328084,0.9171454,16.5553811072,0,0,0,286.5, 0.3, 1.2,0,0,1024,1024,660,1024,287.1,-20.2,71,3.879,3.883,3.879,3.862,0,0,14.206,96.71,127.99156282276,0.328084,32,GPSNovice,
177800,2021-02-26 22:57:36,38.9259833396157,-76.6332169435327,0.328084,,,127.99156282276,0,0,16.2505582628,10,2,15.431,127.99156282276,0.328084,0.9171454,16.5553811072,0,0,0,286.5, 0.3, 1.2,0,0,1024,1024,618,1024,287.1,-20.2,71,3.879,3.883,3.879,3.862,0,0,14.206,96.71,127.99156282276,0.328084,32,GPSNovice,
177900,2021-02-26 22:57:36,38.9259833488594,-76.633216937034,0.328084,,,127.99156282276,0,0,16.252953276,10,2,15.431,127.99156282276,0.328084,0.9171454,16.5553811072,0,0,0,286.6, 0.2, 1.1,0,0,1024,1024,1037,1024,287.1,-20.2,71,3.879,3.883,3.879,3.862,0,0,14.206,96.71,127.99156282276,0.328084,32,GPSNovice,
178000,2021-02-26 22:57:37,38.9259832563279,-76.6332170331522,0.328084,,,127.99156282276,0,0,16.220144876,9,2,15.431,127.99156282276,0.328084,0.9171454,16.5553811072,0,0,0,286.6, 0.3, 1.1,0,0,1024,1024,1029,1024,287.1,-20.2,71,3.879,3.883,3.879,3.862,0,0,14.206,96.71,127.99156282276,0.328084,32,GPSNovice,
178100,2021-02-26 22:57:37,38.9259832575005,-76.6332170359119,0.328084,,,127.99156282276,0,0,16.2194558996,9,2,15.431,127.99156282276,0.328084,0.9171454,16.5553811072,0,0,0.223694,286.6, 0.3, 0.9,0,0,1024,1024,1029,1024,287.1,-20.2,71,3.879,3.883,3.879,3.862,0,0,14.206,96.71,127.99156282276,0.328084,32,GPSNovice,
178200,2021-02-26 22:57:37,38.9259826609876,-76.6332168434895,0,,,127.66347882276,0,0,16.236713118,9,2,15.431,127.99156282276,0.328084,0.9171454,16.5553811072,0,0,0,286.6, 0.4, 0.9,0,0,1024,1024,1029,1024,287.1,-20.2,71,3.879,3.883,3.879,3.862,0,0,14.206,96.71,127.66347882276,0,32,GPSNovice,
178300,2021-02-26 22:57:37,38.9259826500961,-76.6332168492983,0.328084,,,127.99156282276,0,0,16.2344493384,9,2,15.431,127.99156282276,0.328084,0.9171454,16.5553811072,0,0,0,286.5, 0.5, 1,0,0,1024,1024,1029,1024,287.1,-20.2,71,3.879,3.883,3.879,3.862,0,0,14.206,96.71,127.99156282276,0.328084,32,GPSNovice,
178400,2021-02-26 22:57:37,38.9259821419952,-76.6332166517212,0.328084,,,127.99156282276,0,0,16.2610569508,8,2,15.431,127.99156282276,0.328084,0.9171454,16.5553811072,0,0,0,286.5, 0.4, 1.2,0,0,1024,1024,1029,1024,287.1,-20.2,71,3.879,3.883,3.879,3.862,0,0,14.206,96.71,127.99156282276,0.328084,32,GPSNovice,
178500,2021-02-26 22:57:37,38.9259821374702,-76.6332166445096,0.328084,,,127.99156282276,0,0,16.2628286044,8,2,15.431,127.99156282276,0.328084,0.9171454,16.5553811072,0,0,0,286.5, 0.3, 1.2,0,0,1024,1024,1029,1024,287.1,-20.2,71,3.879,3.883,3.879,3.862,0,0,14.206,96.71,127.99156282276,0.328084,32,GPSNovice,
178600,2021-02-26 22:57:37,38.9259821411846,-76.6332167459088,0.328084,,,127.99156282276,0,0,16.234580572,9,2,15.404,127.99156282276,0.328084,0.9171454,16.5553811072,0,0,0,286.5, 0.4, 1.3,0,0,1024,1024,1024,1024,287.1,-20.2,71,3.879,3.883,3.879,3.862,0,0,13.982,96.71,127.99156282276,0.328084,32,GPSNovice,
178700,2021-02-26 22:57:37,38.9259821445164,-76.6332167454459,0.328084,,,127.99156282276,0,0,16.2348758476,9,2,15.404,127.99156282276,0.328084,0.9171454,16.5553811072,0,0,0,286.5, 0.4, 1.3,0,0,1024,1024,626,1049,287.1,-20.2,71,3.879,3.883,3.879,3.862,0,0,13.982,96.71,127.99156282276,0.328084,32,GPSNovice,
178800,2021-02-26 22:57:37,38.9259814519745,-76.6332166408044,0.328084,,,127.99156282276,0,0,16.2283797844,9,2,15.404,127.99156282276,0.328084,0.9171454,16.5553811072,0,0,0,286.5, 0.5, 1.1,0,0,1024,1024,648,1041,287,-20.2,71,3.879,3.883,3.879,3.862,0,0,13.982,96.71,127.99156282276,0.328084,32,GPSNovice,
178900,2021-02-26 22:57:38,38.9259814605197,-76.6332166368333,0.328084,,,127.99156282276,0,0,16.2299217792,9,2,15.404,127.99156282276,0.328084,0.9171454,16.5553811072,0,0,0,286.5, 0.4, 1.2,0,0,1024,1024,1024,1024,287,-20.2,71,3.879,3.883,3.879,3.862,0,0,13.982,96.71,127.99156282276,0.328084,32,GPSNovice,
179000,2021-02-26 22:57:38,38.9259808576889,-76.6332165319169,0.328084,,,127.99156282276,0,0,16.2313981572,9,2,15.404,127.99156282276,0.328084,0.9171454,16.5553811072,0,0,0,286.5, 0.3, 1.2,0,0,1024,1024,1029,1024,287.1,-20.2,71,3.879,3.883,3.879,3.862,0,0,13.982,96.71,127.99156282276,0.328084,32,GPSNovice,
179100,2021-02-26 22:57:38,38.9259808622859,-76.6332165367933,0.328084,,,127.99156282276,0,0,16.2302170548,9,2,15.404,127.99156282276,0.328084,0.9171454,16.5553811072,0,0,0.223694,286.5, 0.4, 0.9,0,0,1024,1024,1028,1024,287,-20.2,71,3.879,3.883,3.879,3.862,0,0,13.982,96.71,127.99156282276,0.328084,32,GPSNovice,
179200,2021-02-26 22:57:38,38.9259799580677,-76.6332165424552,0.328084,,,127.99156282276,0,0,16.1920280772,10,2,15.404,127.99156282276,0.328084,0.9171454,16.5553811072,0,0,0,286.5, 0.5, 1,0,0,1024,1024,1028,1024,287,-20.2,71,3.879,3.883,3.879,3.862,0,0,13.982,96.71,127.99156282276,0.328084,32,GPSNovice,
179300,2021-02-26 22:57:38,38.9259799577635,-76.6332165477442,0.328084,,,127.99156282276,0,0,16.1905188908,10,2,15.404,127.99156282276,0.328084,0.9171454,16.5553811072,0,0,0,286.5, 0.5, 1.2,0,0,1024,1024,1028,1024,287,-20.2,71,3.879,3.883,3.879,3.862,0,0,13.982,96.71,127.99156282276,0.328084,32,GPSNovice,
179400,2021-02-26 22:57:38,38.9259791397469,-76.6332162519962,0.328084,,,127.99156282276,0,0,16.2467852968,10,2,15.404,127.99156282276,0.328084,0.9171454,16.5553811072,0,0,0,286.5, 0.6, 1.4,0,0,1024,1024,1029,1024,287,-20.2,71,3.879,3.883,3.879,3.862,0,0,13.982,96.71,127.99156282276,0.328084,32,GPSNovice,
179500,2021-02-26 22:57:38,38.9259791380168,-76.6332162432383,0.328084,,,127.99156282276,0,0,16.2492131184,10,2,15.404,127.99156282276,0.328084,0.9171454,16.5553811072,0,0,0,286.5, 0.6, 1.3,0,0,1024,1024,1029,1024,287,-20.2,71,3.879,3.883,3.879,3.862,0,0,13.982,96.71,127.99156282276,0.328084,32,GPSNovice,
179600,2021-02-26 22:57:38,38.925978747381,-76.6332162391637,0.328084,,,127.99156282276,0,0,16.2392721732,10,2,15.378,127.99156282276,0.328084,0.9171454,16.5553811072,0,0,0,286.5, 0.5, 1.4,0,0,1024,1024,1029,1024,287,-20.2,71,3.878,3.885,3.884,3.868,0,0,13.982,96.71,127.99156282276,0.328084,32,GPSNovice,
179700,2021-02-26 22:57:38,38.9259787550432,-76.6332162320167,0.328084,,,127.99156282276,0,0,16.2415031444,10,2,15.378,127.99156282276,0.328084,0.9171454,16.5553811072,0,0,0,286.5, 0.5, 1.3,0,0,1024,1024,1029,1024,287,-20.2,71,3.878,3.885,3.884,3.868,0,0,13.982,96.71,127.99156282276,0.328084,32,GPSNovice,
179800,2021-02-26 22:57:38,38.925978066249,-76.6332159370556,0.328084,,,127.99156282276,0,0,16.3085307056,9,2,15.378,127.99156282276,0.328084,0.9171454,16.5553811072,0,0,0,286.5, 0.5, 1.2,0,0,1024,1024,1028,1024,287,-20.2,71,3.878,3.885,3.884,3.868,0,0,13.982,96.71,127.99156282276,0.328084,32,GPSNovice,
179900,2021-02-26 22:57:39,38.9259780694841,-76.6332159420752,0.328084,,,127.99156282276,0,0,16.3071855612,9,2,15.378,127.99156282276,0.328084,0.9171454,16.5553811072,0,0,0,286.5, 0.6, 1.2,0,0,1024,1363,1029,1024,287,-20.2,71,3.878,3.885,3.884,3.868,0,0,13.982,96.71,127.99156282276,0.328084,32,GPSNovice,
180000,2021-02-26 22:57:39,38.9259771735502,-76.6332158483546,0.328084,,,127.99156282276,0,0,16.31807795,9,2,15.378,127.99156282276,0.328084,0.9171454,16.5553811072,0,0,0,286.6, 0.6, 1.2,0,0,1024,1684,1028,1024,287,-20.2,71,3.878,3.885,3.884,3.868,0,0,13.982,96.71,127.99156282276,0.328084,32,GPSNovice,
180100,2021-02-26 22:57:39,38.9259771649331,-76.6332158492214,0.328084,,,127.99156282276,0,0,16.3177170576,9,2,15.378,127.99156282276,0.328084,0.9171454,16.5553811072,0,0,0,286.7, 0.4, 4.6,0,0,1024,1684,1029,1024,287,-20.2,71,3.878,3.885,3.884,3.868,0,0,13.982,96.71,127.99156282276,0.328084,32,GPSNovice,
180200,2021-02-26 22:57:39,38.9259765670001,-76.63321584739,0.328084,,,127.99156282276,0,0,16.3114834616,9,2,15.378,127.99156282276,0.328084,0.9171454,16.5553811072,0,0,0,286.8, 0.3, 12.7,0,0,1024,1163,1029,1024,287,-20.2,71,3.878,3.885,3.884,3.868,0,0,13.982,96.71,127.99156282276,0.328084,32,GPSNovice,
180300,2021-02-26 22:57:39,38.9259767513304,-76.6332157856724,0.328084,,,127.99156282276,0,0.671082,16.3307748008,9,2,15.378,127.99156282276,0.328084,0.9171454,16.5553811072,0.671082,0,0,286.7, 0.3, 15.1,0,0,1024,1037,1029,1024,287,-20.2,71,3.878,3.885,3.884,3.868,0,0,13.982,96.71,127.99156282276,0.328084,32,GPSNovice,
180400,2021-02-26 22:57:39,38.9259766076861,-76.6332154484196,0.328084,,,127.99156282276,0,1.1408394,16.4250661424,10,2,15.378,127.99156282276,0.328084,1.1408394,16.5553811072,1.11847,0.223694,0,286.5, 0.4, 9.2,0,0,1024,1024,1028,1024,287,-20.2,71,3.878,3.885,3.884,3.868,0,0,13.982,96.71,127.99156282276,0.328084,32,GPSNovice,
180500,2021-02-26 22:57:39,38.9259772039576,-76.6332152454015,0.328084,,,127.99156282276,0,1.3645334,16.4895346484,10,2,15.378,127.99156282276,0.328084,1.3645334,16.5553811072,1.342164,0.223694,0,286.6, 0.3, 2.3,0,0,1024,1024,1029,1024,287,-20.2,71,3.878,3.885,3.884,3.868,0,0,13.982,96.71,127.99156282276,0.328084,32,GPSNovice,
180600,2021-02-26 22:57:39,38.9259771411908,-76.6332147524643,0.328084,,,127.99156282276,0,1.3645334,16.6284782224,10,3,15.404,127.99156282276,0.328084,1.3645334,16.6284782224,1.342164,0.223694,0,286.7, 0.2, 0.8,0,0,1024,1024,1029,1024,287,-20.2,71,3.869,3.876,3.875,3.86,0,0,14.006,96.71,127.99156282276,0.328084,32,GPSNovice,
180700,2021-02-26 22:57:39,38.9259776468505,-76.6332145917228,0.328084,,,127.99156282276,0,0.671082,16.6818246808,10,3,15.404,127.99156282276,0.328084,1.3645334,16.6818246808,0.671082,0,0,286.7, 0.2, -0.5,0,0,1024,1024,1029,1024,287,-20.2,71,3.869,3.876,3.875,3.86,0,0,14.006,96.71,127.99156282276,0.328084,32,GPSNovice,
180800,2021-02-26 22:57:39,38.9259767313575,-76.6332142191403,0.328084,,,127.99156282276,0,0.671082,16.7750333452,9,3,15.404,127.99156282276,0.328084,1.3645334,16.7750333452,0,0,0,286.7, 0.3, -0.3,0,0,1024,1024,1029,1024,287,-20.2,71,3.869,3.876,3.875,3.86,0,0,14.006,96.71,127.99156282276,0.328084,32,GPSNovice,
180900,2021-02-26 22:57:39,38.9259765348019,-76.6332143089498,0.328084,,,127.99156282276,0,0.223694,16.7477367564,9,3,15.404,127.99156282276,0.328084,1.3645334,16.7750333452,-0.223694,0,0,286.7, 0.2, 0.8,0,0,1024,1026,1029,1024,287,-20.2,71,3.869,3.876,3.875,3.86,0,0,14.006,96.71,127.99156282276,0.328084,32,GPSNovice,
181000,2021-02-26 22:57:40,38.9259756882828,-76.6332142081214,0.328084,,,127.99156282276,0,0.223694,16.7721133976,10,3,15.404,127.99156282276,0.328084,1.3645334,16.7750333452,-0.223694,0,0,286.6, 0.3, 1.4,0,0,1002,1361,1029,1024,287,-20.2,71,3.869,3.876,3.875,3.86,0,0,14.006,96.71,127.99156282276,0.328084,32,GPSNovice,
181100,2021-02-26 22:57:40,38.9259754346499,-76.6332143269904,0.328084,,,127.99156282276,0,0.223694,16.7382223204,10,3,15.404,127.99156282276,0.328084,1.3645334,16.7750333452,-0.223694,0,0,286.6, 0.4, 2,0,0,959,1568,1029,1024,287,-20.2,71,3.869,3.876,3.875,3.86,0,0,14.006,96.71,127.99156282276,0.328084,32,GPSNovice,
181200,2021-02-26 22:57:40,38.9259751362904,-76.6332138312864,0.328084,,,127.99156282276,0,0.223694,16.8793640572,10,3,15.404,127.99156282276,0.328084,1.3645334,16.8793640572,-0.223694,0,0,286.6, 0.4, 5,0,0,977,1435,1029,1024,287,-20.2,71,3.869,3.876,3.875,3.86,0,0,14.006,96.71,127.99156282276,0.328084,32,GPSNovice,
181300,2021-02-26 22:57:40,38.925975031207,-76.6332138976041,0.328084,,,127.99156282276,0,0,16.860892928,10,3,15.404,127.99156282276,0.328084,1.3645334,16.8793640572,0,0,0,286.7, 0.9, 10.7,0,0,1024,1024,1029,1024,287,-20.2,71,3.869,3.876,3.875,3.86,0,0,14.006,96.71,127.99156282276,0.328084,32,GPSNovice,
181400,2021-02-26 22:57:40,38.9259750785776,-76.6332133850136,0.328084,,,127.99156282276,0,0.223694,17.0062013316,10,3,15.404,127.99156282276,0.328084,1.3645334,17.0062013316,0.223694,0,0,286.6, 1.3, 10.1,0,0,1024,1024,1029,1024,287,-20.2,71,3.869,3.876,3.875,3.86,0,0,14.006,96.71,127.99156282276,0.328084,32,GPSNovice,
181500,2021-02-26 22:57:40,38.9259753526571,-76.6332132501457,0.328084,,,127.99156282276,0,0.7158208,17.0439309916,10,3,15.404,127.99156282276,0.328084,1.3645334,17.0439309916,0.671082,0.223694,0,286.4, 0.5, 2.7,0,0,1024,1024,1029,1024,286.9,-20.2,71,3.869,3.876,3.875,3.86,0,0,14.006,96.71,127.99156282276,0.328084,32,GPSNovice,
181600,2021-02-26 22:57:40,38.9259763845112,-76.6332125061489,0.328084,,,127.99156282276,0,0.7158208,17.258202652,10,3,15.351,127.99156282276,0.328084,1.3645334,17.258202652,0.671082,0.223694,0,286.5, 0.2, 1.5,0,0,1024,1024,1028,1024,287,-20.2,71,3.867,3.869,3.867,3.86,0,0,14.312,96.71,127.99156282276,0.328084,32,GPSNovice,
181700,2021-02-26 22:57:40,38.9259766600531,-76.6332123794651,0.328084,,,127.99156282276,0,0.7158208,17.2963588212,10,3,15.351,127.99156282276,0.328084,1.3645334,17.2963588212,0.671082,0.223694,0,286.4, 0.2, 0.7,0,0,1024,1024,1029,1024,287,-20.2,71,3.867,3.869,3.867,3.86,0,0,14.312,96.71,127.99156282276,0.328084,32,GPSNovice,
181800,2021-02-26 22:57:40,38.9259767634685,-76.6332119033083,0.328084,,,127.99156282276,0,0.447388,17.4324480644,10,3,15.351,127.99156282276,0.328084,1.3645334,17.4324480644,0.447388,0,0,286.4, 0.2, 0,0,0,1024,1024,1029,1024,286.9,-20.2,71,3.867,3.869,3.867,3.86,0,0,14.312,96.71,127.99156282276,0.328084,32,GPSNovice,
181900,2021-02-26 22:57:41,38.9259769895498,-76.633211820906,0.328084,,,127.99156282276,0,0.447388,17.4582354668,10,3,15.351,127.99156282276,0.328084,1.3645334,17.4582354668,0.447388,0,0,286.4, 0.3, -0.1,0,0,1024,1024,1029,1024,287,-20.2,71,3.867,3.869,3.867,3.86,0,0,14.312,96.71,127.99156282276,0.328084,32,GPSNovice,
182000,2021-02-26 22:57:41,38.925977131243,-76.6332114119032,0.328084,,,127.99156282276,0,0.447388,17.575952006,10,3,15.351,127.99156282276,0.328084,1.3645334,17.575952006,0.447388,0,0,286.4, 0.3, 0.1,0,0,1024,1024,1028,1024,286.9,-20.2,71,3.867,3.869,3.867,3.86,0,0,14.312,96.71,127.99156282276,0.328084,32,GPSNovice,
182100,2021-02-26 22:57:41,38.9259773021365,-76.6332113677537,0.328084,,,127.99156282276,0,0.223694,17.590715786,10,3,15.351,127.99156282276,0.328084,1.3645334,17.590715786,0.223694,0,0,286.3, 0.4, -0.1,0,0,1024,1024,1029,1024,286.9,-20.2,71,3.867,3.869,3.867,3.86,0,0,14.312,96.71,127.99156282276,0.328084,32,GPSNovice,
182200,2021-02-26 22:57:41,38.9259775927208,-76.6332111069078,0.328084,,,127.99156282276,0,0.223694,17.6689966284,10,3,15.351,127.99156282276,0.328084,1.3645334,17.6689966284,0.223694,0,0,286.3, 0.5, -0.4,0,0,1024,1024,1029,1024,286.9,-20.2,71,3.867,3.869,3.867,3.86,0,0,14.312,96.71,127.99156282276,0.328084,32,GPSNovice,
182300,2021-02-26 22:57:41,38.9259777616784,-76.6332110688667,0.328084,,,127.99156282276,0,0.223694,17.682579306,10,3,15.351,127.99156282276,0.328084,1.3645334,17.682579306,0.223694,0,0,286.2, 0.5, -0.6,0,0,1024,1024,1028,1024,286.9,-20.2,71,3.867,3.869,3.867,3.86,0,0,14.312,96.71,127.99156282276,0.328084,32,GPSNovice,
182400,2021-02-26 22:57:41,38.9259775810188,-76.6332106830691,0.328084,,,127.99156282276,0,0,17.7890097556,10,3,15.351,127.99156282276,0.328084,1.3645334,17.7890097556,0,0,0,286.3, 0.7, -0.9,0,0,1024,1024,1029,1024,286.9,-20.2,71,3.867,3.869,3.867,3.86,0,0,14.312,96.71,127.99156282276,0.328084,32,GPSNovice,
182500,2021-02-26 22:57:41,38.9259776530997,-76.6332106736083,0.328084,,,127.99156282276,0,0,17.7928483384,10,3,15.351,127.99156282276,0.328084,1.3645334,17.7928483384,0,0,0,286.3, 0.8, -0.8,0,0,1024,1024,1028,1024,286.9,-20.2,71,3.867,3.869,3.867,3.86,0,0,14.312,96.71,127.99156282276,0.328084,32,GPSNovice,
182600,2021-02-26 22:57:41,38.9259775159699,-76.633210361385,0.328084,,,127.99156282276,0,0,17.8792328556,9,3,15.351,127.99156282276,0.328084,1.3645334,17.8792328556,0,0,0,286.3, 0.8, -0.6,0,0,1024,1024,1028,1024,286.9,-20.2,71,3.867,3.869,3.867,3.86,0,0,14.312,96.71,127.99156282276,0.328084,32,GPSNovice,
182700,2021-02-26 22:57:41,38.9259774375107,-76.6332103669995,0.328084,,,127.99156282276,0,0,17.87647695,9,3,15.351,127.99156282276,0.328084,1.3645334,17.8792328556,0,0,0,286.4, 0.7, 0,0,0,1024,1024,1029,1024,286.9,-20.2,71,3.867,3.869,3.867,3.86,0,0,14.312,96.71,127.99156282276,0.328084,32,GPSNovice,
182800,2021-02-26 22:57:41,38.9259774019304,-76.6332099845659,0.328084,,,127.99156282276,0,0,17.984416586,9,3,15.351,127.99156282276,0.328084,1.3645334,17.984416586,0,0,0,286.5, 0.5, 0.5,0,0,1021,1030,1029,1024,286.9,-20.2,71,3.867,3.869,3.867,3.86,0,0,14.312,96.71,127.99156282276,0.328084,32,GPSNovice,
182900,2021-02-26 22:57:42,38.925977363198,-76.6332099789862,0.656168,,,128.31964682276,0,0,17.9854664548,9,3,15.351,128.31964682276,0.656168,1.3645334,17.9854664548,0,0,0,286.6, 0.5, 0.8,0,0,970,1246,1028,1024,286.9,-20.2,71,3.867,3.869,3.867,3.86,0,0,14.312,96.71,128.31964682276,0.656168,32,GPSNovice,
183000,2021-02-26 22:57:42,38.9259773675812,-76.6332096919322,0.656168,,,128.31964682276,0,0,18.066929712,9,3,15.351,128.31964682276,0.656168,1.3645334,18.066929712,0,0,0,286.7, 0.6, 1.2,0,0,873,1244,1028,1024,286.9,-20.2,71,3.867,3.869,3.867,3.86,0,0,14.312,96.71,128.31964682276,0.656168,32,GPSNovice,
183100,2021-02-26 22:57:42,38.9259773826918,-76.6332097070557,0.656168,,,128.31964682276,0,0,18.0628614704,9,3,15.351,128.31964682276,0.656168,1.3645334,18.066929712,0,0,0,286.8, 0.8, 3.7,0,0,854,1170,1028,1024,286.9,-20.2,71,3.867,3.869,3.867,3.86,0,0,14.312,96.71,128.31964682276,0.656168,32,GPSNovice,
183200,2021-02-26 22:57:42,38.9259774503548,-76.6332092814389,0.656168,,,128.31964682276,0,0,18.184547826,11,3,15.351,128.31964682276,0.656168,1.3645334,18.184547826,0,0,0,286.9, 2.2, 4.7,0,0,883,1131,1029,1024,286.9,-20.2,71,3.867,3.869,3.867,3.86,0,0,14.312,96.71,128.31964682276,0.656168,32,GPSNovice,
183300,2021-02-26 22:57:42,38.9259775459433,-76.6332092164468,0.656168,,,128.31964682276,0,0,18.204396908,11,3,15.351,128.31964682276,0.656168,1.3645334,18.204396908,0,0,0,287.1, 2.9, 3.9,0,0,1024,1024,1029,1024,286.9,-20.2,71,3.867,3.869,3.867,3.86,0,0,14.312,96.71,128.31964682276,0.656168,32,GPSNovice,
183400,2021-02-26 22:57:42,38.9259776268543,-76.6332089047685,0.656168,,,128.31964682276,0,0.3131716,18.2940294568,11,3,15.351,128.31964682276,0.656168,1.3645334,18.2940294568,0.223694,0.223694,0,287.1, 2.6, 2.5,0,0,1024,1024,1029,1024,286.9,-20.2,71,3.867,3.869,3.867,3.86,0,0,14.312,96.71,128.31964682276,0.656168,32,GPSNovice,
183500,2021-02-26 22:57:42,38.9259776843376,-76.6332087838178,0.656168,,,128.31964682276,0,0.223694,18.32923287,11,3,15.351,128.31964682276,0.656168,1.3645334,18.32923287,0,0.223694,0,286.9, 0.8, 1.1,0,0,1024,1024,1029,1024,286.9,-20.2,71,3.867,3.869,3.867,3.86,0,0,14.312,96.71,128.31964682276,0.656168,32,GPSNovice,
183600,2021-02-26 22:57:42,38.9259777802461,-76.633208229011,0.656168,,,128.31964682276,0,0,18.4880911428,11,4,15.378,128.31964682276,0.656168,1.3645334,18.4880911428,0,0,0,286.7, 0.3, 0.7,0,0,1024,1024,1028,1024,286.9,-20.2,70,3.865,3.868,3.865,3.849,0,0,14.048,96.71,128.31964682276,0.656168,32,GPSNovice,
183700,2021-02-26 22:57:42,38.9259777779783,-76.6332082074249,0.656168,,,128.31964682276,0,0,18.4941935052,11,4,15.378,128.31964682276,0.656168,1.3645334,18.4941935052,0,0,0,286.6, 0.3, 0.7,0,0,969,1024,1029,1024,286.9,-20.2,70,3.865,3.868,3.865,3.849,0,0,14.048,96.71,128.31964682276,0.656168,32,GPSNovice,
183800,2021-02-26 22:57:42,38.9259778949642,-76.6332078920436,0.656168,,,128.31964682276,0,0,18.5855977076,8,4,15.378,128.31964682276,0.656168,1.3645334,18.5855977076,0,0,0,286.5, 0.5, 1,0,0,915,1024,1029,1024,286.9,-20.2,70,3.865,3.868,3.865,3.849,0,0,14.048,96.71,128.31964682276,0.656168,32,GPSNovice,
183900,2021-02-26 22:57:43,38.9259778382799,-76.6332080127929,0.656168,,,128.31964682276,0,0,18.5503942944,8,4,15.378,128.31964682276,0.656168,1.3645334,18.5855977076,0,0,0,286.5, 0.9, 1.2,0,0,835,1024,1028,1024,286.9,-20.2,70,3.865,3.868,3.865,3.849,0,0,14.048,96.71,128.31964682276,0.656168,32,GPSNovice,
184000,2021-02-26 22:57:43,38.925977920256,-76.6332075709756,0.656168,,,128.31964682276,0,0,18.6770675268,10,4,15.378,128.31964682276,0.656168,1.3645334,18.6770675268,0,0,0,286.7, 1.9, 1.2,0,0,797,1025,1029,1024,286.9,-20.2,70,3.865,3.868,3.865,3.849,0,0,14.048,96.71,128.31964682276,0.656168,32,GPSNovice,
184100,2021-02-26 22:57:43,38.9259779282685,-76.6332075453969,0.656168,,,128.31964682276,0,0,18.6844494168,10,4,15.378,128.31964682276,0.656168,1.3645334,18.6844494168,0,0,0,286.9, 3.2, 1.2,0,0,1023,1024,1029,1024,286.9,-20.2,70,3.865,3.868,3.865,3.849,0,0,14.048,96.71,128.31964682276,0.656168,32,GPSNovice,
184200,2021-02-26 22:57:43,38.9259777311329,-76.6332072675182,0.656168,,,128.31964682276,0,0,18.7599415452,10,4,15.378,128.31964682276,0.656168,1.3645334,18.7599415452,0,0,0,287, 4.2, 1.1,0,0,1024,1024,1029,1024,286.9,-20.2,70,3.865,3.868,3.865,3.849,0,0,14.048,96.71,128.31964682276,0.656168,32,GPSNovice,
184300,2021-02-26 22:57:43,38.9259777268041,-76.6332071215032,0.656168,,,128.31964682276,0,0.223694,18.8012801292,10,4,15.378,128.31964682276,0.656168,1.3645334,18.8012801292,0,0.223694,0,287.1, 2.3, 1,0,0,1024,1024,1029,1024,286.9,-20.2,70,3.865,3.868,3.865,3.849,0,0,14.048,96.71,128.31964682276,0.656168,32,GPSNovice,
184400,2021-02-26 22:57:43,38.9259778103019,-76.6332064288138,0.656168,,,128.31964682276,0,0,18.9990491644,10,4,15.378,128.31964682276,0.656168,1.3645334,18.9990491644,0,0,0,286.9, 0.8, 1,0,0,1024,1024,1029,1024,286.9,-20.2,70,3.865,3.868,3.865,3.849,0,0,14.048,96.71,128.31964682276,0.656168,32,GPSNovice,
184500,2021-02-26 22:57:43,38.9259777754923,-76.6332063796724,0.656168,,,128.31964682276,0,0,19.0124021832,10,4,15.378,128.31964682276,0.656168,1.3645334,19.0124021832,0,0,0,286.7, 0.5, 1,0,0,1024,1024,1029,1024,286.9,-20.2,70,3.865,3.868,3.865,3.849,0,0,14.048,96.71,128.31964682276,0.656168,32,GPSNovice,
184600,2021-02-26 22:57:43,38.9259775977723,-76.6332058791307,0.656168,,,128.31964682276,0,0,19.1516082244,11,4,15.378,128.31964682276,0.656168,1.3645334,19.1516082244,0,0,0,286.5, 0.4, 1.1,0,0,1024,1024,1029,1024,286.9,-20.2,70,3.862,3.867,3.863,3.846,0,0,13.898,96.71,128.31964682276,0.656168,32,GPSNovice,
184700,2021-02-26 22:57:43,38.9259776186255,-76.6332059893472,0.656168,,,128.31964682276,0,0,19.1206699032,11,4,15.378,128.31964682276,0.656168,1.3645334,19.1516082244,0,0,0,286.4, 0.6, 1,0,0,1152,1026,1028,1024,286.8,-20.2,70,3.862,3.867,3.863,3.846,0,0,13.898,96.71,128.31964682276,0.656168,32,GPSNovice,
184800,2021-02-26 22:57:43,38.925977569852,-76.6332055362978,0.656168,,,128.31964682276,0,0,19.2484586212,11,4,15.378,128.31964682276,0.656168,1.3645334,19.2484586212,0,0,0,286.3, 0.8, 1,0,0,1314,1026,1028,1024,286.9,-20.2,70,3.862,3.867,3.863,3.846,0,0,13.898,96.71,128.31964682276,0.656168,32,GPSNovice,
184900,2021-02-26 22:57:44,38.9259775762502,-76.6332055635091,0.656168,,,128.31964682276,0,0,19.240814264,11,4,15.378,128.31964682276,0.656168,1.3645334,19.2484586212,0,0,0,286.4, -0.4, 0.9,0,0,1334,1024,1029,1024,286.9,-20.2,70,3.862,3.867,3.863,3.846,0,0,13.898,96.71,128.31964682276,0.656168,32,GPSNovice,
185000,2021-02-26 22:57:44,38.9259776852491,-76.6332051743894,0.656168,,,128.31964682276,0,0.223694,19.3527893332,11,4,15.378,128.31964682276,0.656168,1.3645334,19.3527893332,0,-0.223694,0,286.4, -3.3, 0.8,0,0,1032,1024,1029,1024,286.9,-20.2,70,3.862,3.867,3.863,3.846,0,0,13.898,96.71,128.31964682276,0.656168,32,GPSNovice,
185100,2021-02-26 22:57:44,38.9259776952766,-76.6332052502277,0.656168,,,128.31964682276,0,0.223694,19.3314310648,11,4,15.378,128.31964682276,0.656168,1.3645334,19.3527893332,0,-0.223694,0,286.3, -4.7, 0.9,0,0,1024,1024,1028,1024,286.8,-20.2,70,3.862,3.867,3.863,3.846,0,0,13.898,96.71,128.31964682276,0.656168,32,GPSNovice,
185200,2021-02-26 22:57:44,38.9259777209129,-76.6332049267051,0.656168,,,128.31964682276,0,0.447388,19.4235898604,11,4,15.378,128.31964682276,0.656168,1.3645334,19.4235898604,0,-0.447388,0,286.2, -2.1, 0.9,0,0,1024,1024,1029,1024,286.8,-20.2,70,3.862,3.867,3.863,3.846,0,0,13.898,96.71,128.31964682276,0.656168,32,GPSNovice,
185300,2021-02-26 22:57:44,38.925977759277,-76.6332052542844,0.656168,,,128.31964682276,0,0.447388,19.3312670228,11,4,15.378,128.31964682276,0.656168,1.3645334,19.4235898604,0,-0.447388,0,286.3, 0.5, 0.9,0,0,1024,1024,1029,1024,286.8,-20.2,70,3.862,3.867,3.863,3.846,0,0,13.898,96.71,128.31964682276,0.656168,32,GPSNovice,
185400,2021-02-26 22:57:44,38.9259776631773,-76.6332051373392,0.656168,,,128.31964682276,0,0.447388,19.3629599372,10,4,15.378,128.31964682276,0.656168,1.3645334,19.4235898604,0,-0.447388,0,286.3, 1, 0.8,0,0,1024,1024,1029,1024,286.8,-20.2,70,3.862,3.867,3.863,3.846,0,0,13.898,96.71,128.31964682276,0.656168,32,GPSNovice,
185500,2021-02-26 22:57:44,38.9259776601491,-76.6332052933945,0.656168,,,128.31964682276,0,0.223694,19.3186685972,10,4,15.378,128.31964682276,0.656168,1.3645334,19.4235898604,0,-0.223694,0,286.4, 1.3, 1,0,0,1024,1024,1029,1024,286.8,-20.2,70,3.862,3.867,3.863,3.846,0,0,13.898,96.71,128.31964682276,0.656168,32,GPSNovice,
185600,2021-02-26 22:57:44,38.9259774804364,-76.6332048879939,0.656168,,,128.31964682276,0,0,19.4310701756,10,4,15.378,128.31964682276,0.656168,1.3645334,19.4310701756,0,0,0,286.4, 1.1, 1,0,0,1024,1024,1029,1024,286.8,-20.2,70,3.862,3.867,3.863,3.846,0,0,13.898,96.71,128.31964682276,0.656168,32,GPSNovice,
185700,2021-02-26 22:57:44,38.9259774436263,-76.6332048254912,0.656168,,,128.31964682276,0,0,19.4482945856,10,4,15.378,128.31964682276,0.656168,1.3645334,19.4482945856,0,0,0,286.4, 0.8, 1.1,0,0,1024,1024,1030,1024,286.8,-20.2,70,3.862,3.867,3.863,3.846,0,0,13.898,96.71,128.31964682276,0.656168,32,GPSNovice,
185800,2021-02-26 22:57:44,38.9259773379996,-76.6332044142579,0.656168,,,128.31964682276,0,0,19.5635504948,10,4,15.378,128.31964682276,0.656168,1.3645334,19.5635504948,0,0,0,286.4, 0.5, 1,0,0,1024,1024,1088,1037,286.8,-20.2,70,3.862,3.867,3.863,3.846,0,0,13.898,96.71,128.31964682276,0.656168,32,GPSNovice,
185900,2021-02-26 22:57:45,38.9259773463073,-76.6332044264231,0.656168,,,128.31964682276,0,0,19.560204038,10,4,15.378,128.31964682276,0.656168,1.3645334,19.5635504948,0,0,0,286.4, 0.4, 1.1,0,0,1024,1024,1114,1116,286.8,-20.2,70,3.862,3.867,3.863,3.846,0,0,13.898,96.71,128.31964682276,0.656168,32,GPSNovice,
186000,2021-02-26 22:57:45,38.9259772655794,-76.6332044381705,0.656168,,,128.31964682276,0,0,19.5558733292,10,4,15.378,128.31964682276,0.656168,1.3645334,19.5635504948,0,0,0,286.4, 0.5, 1,0,0,1024,1024,1101,1130,287.4,-20.2,70,3.862,3.867,3.863,3.846,0,0,13.898,96.71,128.31964682276,0.656168,32,GPSNovice,
186100,2021-02-26 22:57:45,38.9259772812019,-76.6332044691695,0.656168,,,128.31964682276,0,0,19.5472775284,10,4,15.378,128.31964682276,0.656168,1.3645334,19.5635504948,0,0,0,286.7, 0.7, 0.9,0,0,1024,1024,1090,1141,287.4,-20.2,70,3.862,3.867,3.863,3.846,0,0,13.898,96.71,128.31964682276,0.656168,32,GPSNovice,
186200,2021-02-26 22:57:45,38.925977190826,-76.6332044938289,0.656168,,,128.31964682276,0,0,19.539206662,9,4,15.378,128.31964682276,0.656168,1.3645334,19.5635504948,0,0,0,287.1, 0.8, 1,0,0,1024,1024,1088,1162,287.9,-20.2,70,3.862,3.867,3.863,3.846,0,0,13.898,96.71,128.31964682276,0.656168,32,GPSNovice,
186300,2021-02-26 22:57:45,38.9259771937148,-76.6332044970193,0.656168,,,128.31964682276,0,0,19.5383208352,9,4,15.378,128.31964682276,0.656168,1.3645334,19.5635504948,0,0,0,287.6, 0.8, 1.1,0,0,1024,1024,1077,1181,288.5,-20.2,70,3.862,3.867,3.863,3.846,0,0,13.898,96.71,128.31964682276,0.656168,32,GPSNovice,
186400,2021-02-26 22:57:45,38.9259768985549,-76.6332046880467,0.656168,,,128.31964682276,0,0,19.480971752,9,4,15.378,128.31964682276,0.656168,1.3645334,19.5635504948,0,0,0,288.3, 0.8, 1.1,0,0,1024,1024,1074,1203,290.2,-20.2,70,3.862,3.867,3.863,3.846,0,0,13.898,96.71,128.31964682276,0.656168,32,GPSNovice,
186500,2021-02-26 22:57:45,38.9259768982514,-76.6332046773374,0.656168,,,128.31964682276,0,0,19.4840229332,9,4,15.378,128.31964682276,0.656168,1.3645334,19.5635504948,0,0,0,289, 0.8, 1,0,0,1024,1024,1049,1254,291.2,-20.2,70,3.862,3.867,3.863,3.846,0,0,13.898,96.71,128.31964682276,0.656168,32,GPSNovice,
186600,2021-02-26 22:57:45,38.9259769013604,-76.6332047781021,0.656168,,,128.31964682276,0,0,19.4554468168,9,4,15.351,128.31964682276,0.656168,1.3645334,19.5635504948,0,0,0,290, 0.9, 1.1,0,0,1024,1024,1041,1266,292.5,-20.2,70,3.861,3.865,3.862,3.845,0,0,13.664,96.71,128.31964682276,0.656168,32,GPSNovice,
186700,2021-02-26 22:57:45,38.9259769026848,-76.6332047809685,0.656168,,,128.31964682276,0,0,19.4546594152,9,4,15.351,128.31964682276,0.656168,1.3645334,19.5635504948,0,0,0,291.2, 0.9, 1,0,0,1024,1024,1046,1269,293.8,-20.2,70,3.861,3.865,3.862,3.845,0,0,13.664,96.71,128.31964682276,0.656168,32,GPSNovice,
186800,2021-02-26 22:57:45,38.9259768067065,-76.6332049879043,0.656168,,,128.31964682276,0,0,19.3950465524,9,4,15.351,128.31964682276,0.656168,1.3645334,19.5635504948,0,0,0,292.6, 0.9, 0.9,0,0,1024,1024,1048,1281,295.1,-20.2,70,3.861,3.865,3.862,3.845,0,0,13.664,96.71,128.31964682276,0.656168,32,GPSNovice,
186900,2021-02-26 22:57:46,38.9259767958358,-76.6332050072831,0.656168,,,128.31964682276,0,0,19.389436316,9,4,15.351,128.31964682276,0.656168,1.3645334,19.5635504948,0,0,0,294.1, 1, 1,0,0,1024,1024,1044,1302,296.5,-20.2,70,3.861,3.865,3.862,3.845,0,0,13.664,96.71,128.31964682276,0.656168,32,GPSNovice,
187000,2021-02-26 22:57:46,38.9259766906546,-76.6332051271817,0.656168,,,128.31964682276,0,0,19.35449537,10,4,15.351,128.31964682276,0.656168,1.3645334,19.5635504948,0,0,0,295.6, 1.2, 1.2,0,0,1024,1024,1036,1327,298.1,-20.2,70,3.861,3.865,3.862,3.845,0,0,13.664,96.71,128.31964682276,0.656168,32,GPSNovice,
187100,2021-02-26 22:57:46,38.9259766757025,-76.63320513648,0.656168,,,128.31964682276,0,0,19.3517394644,10,4,15.351,128.31964682276,0.656168,1.3645334,19.5635504948,0,0,0,297.2, 1.2, 1.4,0,0,1024,1024,1043,1326,299.7,-20.2,70,3.861,3.865,3.862,3.845,0,0,13.664,96.71,128.31964682276,0.656168,32,GPSNovice,
187200,2021-02-26 22:57:46,38.925976571497,-76.6332051959071,0.656168,,,128.31964682276,0,0,19.3340557368,10,4,15.351,128.31964682276,0.656168,1.3645334,19.5635504948,0,0,0,298.9, 0.8, 1.3,0,0,1024,1024,1049,1330,301.4,-20.3,70,3.861,3.865,3.862,3.845,0,0,13.664,96.71,128.31964682276,0.656168,32,GPSNovice,
187300,2021-02-26 22:57:46,38.925976606625,-76.6332051348802,0.656168,,,128.31964682276,0,0,19.3516410392,10,4,15.351,128.31964682276,0.656168,1.3645334,19.5635504948,0,0,0,300.7, 0.5, 1,0,0,1024,1024,1048,1329,303,-20.2,70,3.861,3.865,3.862,3.845,0,0,13.664,96.71,128.31964682276,0.656168,32,GPSNovice,
187400,2021-02-26 22:57:46,38.9259765162443,-76.6332052991011,0.656168,,,128.31964682276,0,0,19.3043641348,10,4,15.351,128.31964682276,0.656168,1.3645334,19.5635504948,0,0,0,302.5, 0.4, 0.8,0,0,1024,1024,1047,1326,304.7,-20.2,70,3.861,3.865,3.862,3.845,0,0,13.664,96.71,128.31964682276,0.656168,32,GPSNovice,
187500,2021-02-26 22:57:46,38.9259765209714,-76.633205325832,0.656168,,,128.31964682276,0,0,19.2968182028,10,4,15.351,128.31964682276,0.656168,1.3645334,19.5635504948,0,0,0,304.3, 0.5, 0.8,0,0,1024,1024,1047,1322,306.4,-20.2,70,3.861,3.865,3.862,3.845,0,0,13.664,96.71,128.31964682276,0.656168,32,GPSNovice,
187600,2021-02-26 22:57:46,38.9259765153982,-76.6332053478056,0.656168,,,128.31964682276,0,0,19.2905517984,10,4,15.351,128.31964682276,0.656168,1.3645334,19.5635504948,0,0,0,306.1, 0.6, 0.9,0,0,1024,1024,1046,1309,308.1,-20.2,70,3.858,3.861,3.859,3.842,0,0,13.81,96.71,128.31964682276,0.656168,32,GPSNovice,
187700,2021-02-26 22:57:46,38.9259765146059,-76.6332053603021,0.656168,,,128.31964682276,0,0,19.2869756828,10,4,15.351,128.31964682276,0.656168,1.3645334,19.5635504948,0,0,0,308, 0.5, 1.1,0,0,1024,1024,1032,1213,309.8,-20.2,70,3.858,3.861,3.859,3.842,0,0,13.81,96.71,128.31964682276,0.656168,32,GPSNovice,
187800,2021-02-26 22:57:46,38.9259761086123,-76.6332054611962,0.656168,,,128.31964682276,0,0,19.2560373616,10,4,15.351,128.31964682276,0.656168,1.3645334,19.5635504948,0,0,0,309.7, 0.5, 1,0,0,1024,1049,1032,1219,311,-20.2,70,3.858,3.861,3.859,3.842,0,0,13.81,96.71,128.31964682276,0.656168,32,GPSNovice,
