time(millisecond),datetime(utc),latitude,longitude,height_above_takeoff(feet),height_above_ground_at_drone_location(feet),ground_elevation_at_drone_location(feet),altitude_above_seaLevel(feet),height_sonar(feet),speed(mph),distance(feet),satellites,gpslevel,voltage(v),max_altitude(feet),max_ascent(feet),max_speed(mph),max_distance(feet), xSpeed(mph), ySpeed(mph), zSpeed(mph), compass_heading(degrees), pitch(degrees), roll(degrees),isPhoto,isVideo,rc_elevator,rc_aileron,rc_throttle,rc_rudder,gimbal_heading(degrees),gimbal_pitch(degrees),battery_percent,voltageCell1,voltageCell2,voltageCell3,voltageCell4,voltageCell5,voltageCell6,current(A),battery_temperature(f),altitude(feet),ascent(feet),flycStateRaw,flycState,message
233100,,38.9262018203225,-76.6332851106131,0,Available with any HD 360 subscription,Available with any HD 360 subscription,125.32135735674,0,0,0,15,4,0,125.32135735674,0,0,0,0,0,0,192, -3, 0,0,0,1024,1024,1024,1024,196.5,-7.8,89,4.151,4.152,4.152,4.151,0,0,0,91.31,125.32135735674,0,32,GPSNovice,GEO: You are in a Warning Zone (Unpaved Airports). Fly with caution.
233200,,38.92620182003,-76.6332851100731,0,,,125.32135735674,0,0,0.000186757223824,15,4,0,125.32135735674,0,0,0.000186757223824,0,0,0,192, -3, 0,0,0,1024,1024,1024,1024,196.5,-7.8,89,4.151,4.152,4.152,4.151,0,0,0,91.31,125.32135735674,0,32,GPSNovice,
233300,2021-03-10 20:51:04,38.9262022201143,-76.6332855102611,0,,,125.32135735674,0,0,0.18478018964,15,4,0,125.32135735674,0,0,0.18478018964,0,0,0,192, -3, 0,0,0,1024,1024,1024,1024,196.5,-7.8,89,4.151,4.152,4.152,4.151,0,0,0,91.31,125.32135735674,0,32,GPSNovice,
233400,2021-03-10 20:51:04,38.9262022198468,-76.6332855118931,0,,,125.32135735674,0,0,0.184987866812,15,4,0,125.32135735674,0,0,0.184987866812,0,0,0,192, -3, 0,0,0,1024,1024,1024,1024,196.5,-7.8,89,4.151,4.152,4.152,4.151,0,0,0,91.31,125.32135735674,0,32,GPSNovice,
233500,2021-03-10 20:51:04,38.9262025217602,-76.6332858166425,0,,,125.32135735674,0,0,0.325043973656,15,4,0,125.32135735674,0,0,0.325043973656,0,0,0,192, -3, 0,0,0,1024,1024,1024,1153,196.5,-7.8,89,4.151,4.152,4.152,4.151,0,0,0,91.31,125.32135735674,0,32,GPSNovice,
233600,2021-03-10 20:51:04,38.926202524105,-76.6332858224674,0,,,125.32135735674,0,0,0.326737871348,15,4,0,125.32135735674,0,0,0.326737871348,0,0,0,192, -3, 0,0,0,1024,1024,1026,1024,193.9,-7.8,89,4.151,4.152,4.152,4.151,0,0,0,91.31,125.32135735674,0,32,GPSNovice,
233800,2021-03-10 20:51:04,38.9262029290801,-76.6332860361907,0,,,125.32135735674,0,0,0.48235237764,15,4,0,125.32135735674,0,0,0.48235237764,0,0,0,192, -3, 0,0,0,1024,1024,1026,1024,193.4,-7.8,89,4.151,4.152,4.152,4.151,0,0,0,91.31,125.32135735674,0,32,GPSNovice,
233900,2021-03-10 20:51:04,38.9262032310942,-76.6332864370794,0,,,125.32135735674,0,0,0.63771983668,15,4,0,125.32135735674,0,0,0.63771983668,0,0,0,192, -3, 0,0,0,1024,1024,1026,1024,193.1,-7.8,89,4.151,4.152,4.152,4.151,0,0,0,91.31,125.32135735674,0,32,GPSNovice,
234000,2021-03-10 20:51:04,38.9262032343465,-76.6332864411584,0,,,125.32135735674,0,0,0.63936353752,15,4,16.604,125.32135735674,0,0,0.63936353752,0,0,0,192, -3, 0,0,0,1024,1024,1027,1024,192.9,-7.8,89,4.151,4.152,4.152,4.151,0,0,1.1,91.31,125.32135735674,0,32,GPSNovice,
234100,2021-03-10 20:51:05,38.9262035311138,-76.6332866463503,0,,,125.32135735674,0,0,0.76132220284,15,4,16.604,125.32135735674,0,0,0.76132220284,0,0,0,192, -3, 0,0,0,1024,1024,1026,1024,192.8,-7.8,89,4.151,4.152,4.152,4.151,0,0,1.1,91.31,125.32135735674,0,32,GPSNovice,
234200,2021-03-10 20:51:05,38.9262035329812,-76.6332866530138,0,,,125.32135735674,0,0,0.76296262284,15,4,16.604,125.32135735674,0,0,0.76296262284,0,0,0,192, -3, 0,0,0,1024,1024,1026,1024,192.7,-7.8,89,4.151,4.152,4.152,4.151,0,0,1.1,91.31,125.32135735674,0,32,GPSNovice,
234300,2021-03-10 20:51:05,38.9262037331877,-76.6332869495454,0,,,125.32135735674,0,0,0.87149937172,15,4,16.604,125.32135735674,0,0,0.87149937172,0,0,0,192, -3, 0,0,0,1024,1024,1026,1024,192.6,-7.8,89,4.151,4.152,4.152,4.151,0,0,1.1,91.31,125.32135735674,0,32,GPSNovice,
234400,2021-03-10 20:51:05,38.9262037327834,-76.6332869470163,0,,,125.32135735674,0,0,0.87095147144,15,4,16.604,125.32135735674,0,0,0.87149937172,0,0,0,192, -3.1, 0,0,0,1024,1024,1026,1024,192.6,-7.8,89,4.151,4.152,4.152,4.151,0,0,1.1,91.31,125.32135735674,0,32,GPSNovice,
234500,2021-03-10 20:51:05,38.9262039328529,-76.6332872495229,0,,,125.32135735674,0,0,0.98113848284,15,4,16.604,125.32135735674,0,0,0.98113848284,0,0,0,192, -3.1, 0,0,0,1024,1024,1026,1024,192.5,-7.8,89,4.151,4.152,4.152,4.151,0,0,1.1,91.31,125.32135735674,0,32,GPSNovice,
234600,2021-03-10 20:51:05,38.9262039322243,-76.6332872477138,0,,,125.32135735674,0,0,0.980643076,15,4,16.604,125.32135735674,0,0,0.98113848284,0,0,0,192, -3.2, 0,0,0,1024,1024,1027,1024,192.5,-7.8,89,4.151,4.152,4.152,4.151,0,0,1.1,91.31,125.32135735674,0,32,GPSNovice,
234700,2021-03-10 20:51:05,38.9262040340502,-76.6332874527437,0,,,125.32135735674,0,0,1.04607614896,15,4,16.604,125.32135735674,0,0,1.04607614896,0,0,0,191.9, -3.2, 0,0,0,1024,1024,1026,1024,192.4,-7.8,89,4.151,4.152,4.152,4.151,0,0,1.1,91.31,125.32135735674,0,32,GPSNovice,
234800,2021-03-10 20:51:05,38.926204035452,-76.6332874510291,0,,,125.32135735674,0,0,1.04616473164,15,4,16.604,125.32135735674,0,0,1.04616473164,0,0,0,191.9, -3.1, 0,0,0,1024,1024,1026,1024,192.4,-7.8,89,4.151,4.152,4.152,4.151,0,0,1.1,91.31,125.32135735674,0,32,GPSNovice,
234900,2021-03-10 20:51:05,38.9262042373439,-76.6332877521736,0,,,125.32135735674,0,0,1.15750331788,15,4,16.604,125.32135735674,0,0,1.15750331788,0,0,0,191.9, -3.2, 0,0,0,1024,1024,1026,1024,192.4,-7.8,89,4.151,4.152,4.152,4.151,0,0,1.1,91.31,125.32135735674,0,32,GPSNovice,
235000,2021-03-10 20:51:05,38.9262042316699,-76.6332877482844,0,,,125.32135735674,0,0,1.15521329156,15,4,16.47,125.32135735674,0,0,1.15750331788,0,0,0,191.9, -3.2, 0,0,0,1024,1024,1026,1024,192.3,-7.8,89,4.148,4.149,4.149,4.148,0,0,1.798,93.11,125.32135735674,0,32,GPSNovice,
235200,2021-03-10 20:51:06,38.9262043353558,-76.6332879427083,0,,,125.32135735674,0,0,1.21991145636,15,4,16.47,125.32135735674,0,0,1.21991145636,0,0,0,191.9, -2.8, -0.1,0,0,1024,1024,1026,1024,192.3,-7.8,89,4.148,4.149,4.149,4.148,0,0,1.798,93.11,125.32135735674,0,10,Assisted_Takeoff,
235300,2021-03-10 20:51:06,38.9262045390569,-76.6332880396549,0,,,125.32135735674,0,0,1.29425529076,15,5,16.47,125.32135735674,0,0,1.29425529076,0,0,0,191.9, -2.9, -0.1,0,0,1024,1024,1026,1024,192.3,-7.8,89,4.148,4.149,4.149,4.148,0,0,1.798,93.11,125.32135735674,0,10,Assisted_Takeoff,
235400,2021-03-10 20:51:06,38.9262045371439,-76.6332880479928,0,,,125.32135735674,0,0,1.2952428236,15,5,16.47,125.32135735674,0,0,1.2952428236,0,0,0,191.9, -2.8, -0.1,0,0,1024,1024,1026,1024,192.3,-7.8,89,4.148,4.149,4.149,4.148,0,0,1.798,93.11,125.32135735674,0,10,Assisted_Takeoff,
235500,2021-03-10 20:51:06,38.9262046411144,-76.6332882339468,0,,,125.32135735674,0,0,1.35833993848,15,5,16.47,125.32135735674,0,0,1.35833993848,0,0,0,191.9, -2.8, -0.1,0,0,1024,1024,1026,1024,192.3,-7.8,89,4.148,4.149,4.149,4.148,0,0,1.798,93.11,125.32135735674,0,10,Assisted_Takeoff,
235600,2021-03-10 20:51:06,38.9262046441418,-76.6332882344224,0,,,125.32135735674,0,0,1.35926513536,15,5,16.47,125.32135735674,0,0,1.35926513536,0,0,0,191.9, -2.8, -0.1,0,0,1024,1024,1026,1024,192.3,-7.8,89,4.148,4.149,4.149,4.148,0,0,1.798,93.11,125.32135735674,0,10,Assisted_Takeoff,
235700,2021-03-10 20:51:06,38.9262048363356,-76.6332884382139,0,,,125.32135735674,0,0,1.4501476842,15,5,16.47,125.32135735674,0,0,1.4501476842,0,0,0,191.9, -2.8, -0.1,0,0,1024,1024,1026,1024,192.3,-7.8,89,4.148,4.149,4.149,4.148,0,0,1.798,93.11,125.32135735674,0,10,Assisted_Takeoff,
235900,2021-03-10 20:51:06,38.9262049371639,-76.6332885421341,0,,,125.32135735674,0,0,1.49727366996,15,5,16.47,125.32135735674,0,0,1.49727366996,0,0,0,191.9, -2.8, -0.2,0,0,1024,1024,1026,1024,192.3,-7.8,89,4.148,4.149,4.149,4.148,0,0,1.798,93.11,125.32135735674,0,10,Assisted_Takeoff,
236000,2021-03-10 20:51:06,38.9262049335166,-76.6332885404278,0,,,125.32135735674,0,0,1.4959482106,15,5,16.444,125.32135735674,0,0,1.49727366996,0,0,0,191.9, -2.8, -0.2,0,0,1024,1024,1026,1024,192.2,-7.8,89,4.139,4.139,4.14,4.137,0,0,3.148,93.11,125.32135735674,0,10,Assisted_Takeoff,
236100,2021-03-10 20:51:06,38.9262051306844,-76.6332887424194,0,,,125.32135735674,0,0,1.58788390908,15,5,16.444,125.32135735674,0,0,1.58788390908,0,0,0,191.9, -2.8, -0.2,0,0,1024,1024,1026,1024,192.2,-7.8,89,4.139,4.139,4.14,4.137,0,0,3.148,93.11,125.32135735674,0,10,Assisted_Takeoff,
236200,2021-03-10 20:51:07,38.926205124863,-76.6332887382386,0,,,125.32135735674,0,0,1.5854987384,15,5,16.444,125.32135735674,0,0,1.58788390908,0,0,0,191.8, -2.8, -0.2,0,0,1024,1024,1028,1024,192.2,-7.8,89,4.139,4.139,4.14,4.137,0,0,3.148,93.11,125.32135735674,0,10,Assisted_Takeoff,
236300,2021-03-10 20:51:07,38.9262053244945,-76.633288939794,0,,,125.32135735674,0,0,1.67804139228,15,5,16.444,125.32135735674,0,0,1.67804139228,0,0,0,191.8, -2.8, -0.2,0,0,1024,1024,1028,1024,192.2,-7.8,89,4.139,4.139,4.14,4.137,0,0,3.148,93.11,125.32135735674,0,10,Assisted_Takeoff,
236400,2021-03-10 20:51:07,38.9262053233062,-76.6332889360201,0,,,125.32135735674,0,0,1.6770177702,15,5,16.444,125.32135735674,0,0,1.67804139228,0,0,0,191.8, -2.8, -0.2,0,0,1024,1024,1031,1024,192.2,-7.8,89,4.139,4.139,4.14,4.137,0,0,3.148,93.11,125.32135735674,0,10,Assisted_Takeoff,
236500,2021-03-10 20:51:07,38.9262054247174,-76.6332891303352,0,,,125.32135735674,0,0,1.74101711608,15,5,16.444,125.32135735674,0,0,1.74101711608,0,0,0,191.8, -2.8, -0.2,0,0,1024,1024,1068,1024,192.2,-7.8,89,4.139,4.139,4.14,4.137,0,0,3.148,93.11,125.32135735674,0,10,Assisted_Takeoff,
236600,2021-03-10 20:51:07,38.926205425657,-76.6332891297267,0,,,125.32135735674,0,0,1.74116475388,15,5,16.444,125.32135735674,0,0,1.74116475388,0,0,0,191.8, -2.8, -0.2,0,0,1024,1024,1090,1024,192.2,-7.8,89,4.139,4.139,4.14,4.137,0,0,3.148,93.11,125.32135735674,0,10,Assisted_Takeoff,
236700,2021-03-10 20:51:07,38.9262055243112,-76.6332892364106,0,,,125.32135735674,0,0,1.78819559528,15,5,16.444,125.32135735674,0,0,1.78819559528,0,0,0,191.8, -2.8, -0.2,0,0,1024,1024,1096,1024,192.2,-7.8,89,4.139,4.139,4.14,4.137,0,0,3.148,93.11,125.32135735674,0,10,Assisted_Takeoff,
236800,2021-03-10 20:51:07,38.9262055256722,-76.6332892408983,0,,,125.32135735674,0,0,1.78940622524,15,5,16.444,125.32135735674,0,0,1.78940622524,0,0,0,191.8, -2.7, -0.2,0,0,1024,1024,1107,1024,192.2,-7.8,89,4.139,4.139,4.14,4.137,0,0,3.148,93.11,125.32135735674,0,10,Assisted_Takeoff,
236900,2021-03-10 20:51:07,38.9262056257388,-76.6332894317807,0,,,125.32135735674,0,0,1.85256239524,15,5,16.444,125.32135735674,0,0,1.85256239524,0,0,0,191.8, -2.7, -0.2,0,0,1024,1024,1119,1024,192.2,-7.8,89,4.139,4.139,4.14,4.137,0,0,3.148,93.11,125.32135735674,0,10,Assisted_Takeoff,
237000,2021-03-10 20:51:07,38.9262056250962,-76.633289432353,0,,,125.32135735674,0,0,1.8524934976,15,5,16.444,125.32135735674,0,0,1.85256239524,0,0,0,191.7, -2.6, -0.2,0,0,1024,1024,1122,1024,192.2,-7.8,89,4.139,4.139,4.14,4.137,0,0,3.148,93.11,125.32135735674,0,10,Assisted_Takeoff,
237100,2021-03-10 20:51:08,38.926205623823,-76.6332894335193,0,,,125.32135735674,0,0,1.85236554484,15,5,16.444,125.32135735674,0,0,1.85256239524,0,0,0,191.6, -2.5, -0.2,0,0,1024,1024,1134,1024,192.2,-7.8,89,4.139,4.139,4.14,4.137,0,0,3.148,93.11,125.32135735674,0,10,Assisted_Takeoff,
237200,2021-03-10 20:51:08,38.92620562173,-76.6332894301756,0,,,125.32135735674,0,0,1.8511647574,15,5,16.444,125.32135735674,0,0,1.85256239524,0,0,0,191.3, -2.2, -0.2,0,0,1024,1024,1143,1024,192.2,-7.8,89,4.139,4.139,4.14,4.137,0,0,3.148,93.11,125.32135735674,0,10,Assisted_Takeoff,
237300,2021-03-10 20:51:08,38.9262057189769,-76.633289531468,0,,,125.32135735674,0,0,1.89678811844,15,5,16.444,125.32135735674,0,0,1.89678811844,0,0,0,190.9, -1.2, -0.2,0,0,1024,1024,1145,1024,192.2,-7.8,89,4.139,4.139,4.14,4.137,0,0,3.148,93.11,125.32135735674,0,10,Assisted_Takeoff,
237400,2021-03-10 20:51:08,38.9262057063683,-76.6332895263689,0,,,125.32135735674,0,0,1.89238195032,15,5,16.444,125.32135735674,0,0,1.89678811844,0,0,0,190.8, 0, 0,0,0,1024,1024,1137,1024,192.2,-7.8,89,4.139,4.139,4.14,4.137,0,0,3.148,93.11,125.32135735674,0,10,Assisted_Takeoff,
237500,2021-03-10 20:51:08,38.9262057934648,-76.6332896337016,0,,,125.32135735674,0,0,1.9363681722,15,5,16.444,125.32135735674,0,0,1.9363681722,0,0,-0.223694,190.9, 0.6, 0,0,0,1024,1024,1136,1024,192.1,-7.8,89,4.139,4.139,4.14,4.137,0,0,3.148,93.11,125.32135735674,0,32,GPSNovice,
237600,2021-03-10 20:51:08,38.9262057974167,-76.6332896439646,0,,,125.32135735674,0.328084,0,1.93937998332,15,5,16.444,125.32135735674,0,0,1.93937998332,0,0,-0.671082,191, 0.2, 0,0,0,1024,1024,1135,1024,192.1,-7.8,89,4.139,4.139,4.14,4.137,0,0,3.148,93.11,125.32135735674,0,32,GPSNovice,
237700,2021-03-10 20:51:08,38.9262056901422,-76.6332897583967,0,,,125.32135735674,0.328084,0,1.9322999306,15,5,16.444,125.32135735674,0,0,1.93937998332,0,0,-0.894776,191.1, 0.3, -0.1,0,0,1024,1024,1138,1024,192.1,-7.8,89,4.139,4.139,4.14,4.137,0,0,3.148,93.11,125.32135735674,0,32,GPSNovice,
237800,2021-03-10 20:51:08,38.9262056803305,-76.6332897697514,0,,,125.32135735674,0.328084,0,1.9318898256,15,5,16.444,125.32135735674,0,0,1.93937998332,0,0,-0.671082,191.1, 0.2, -0.1,0,0,1024,1024,1164,1024,192.1,-7.8,89,4.139,4.139,4.14,4.137,0,0,3.148,93.11,125.32135735674,0,32,GPSNovice,
237900,2021-03-10 20:51:08,38.9262057704266,-76.6332900782963,0.328084,,,125.64944135674,0.656168,0,2.01622709864,15,5,16.444,125.64944135674,0.328084,0,2.01622709864,0,0,-0.671082,191.1, 0.3, -0.1,0,0,1024,1024,1189,1024,192.1,-7.8,89,4.139,4.139,4.14,4.137,0,0,3.148,93.11,125.64944135674,0.328084,32,GPSNovice,
238000,2021-03-10 20:51:08,38.9262057719854,-76.6332900955225,0.328084,,,125.64944135674,0.656168,0,2.02005583892,15,5,16.524,125.64944135674,0.328084,0,2.02005583892,0,0,-0.671082,191.1, 0.4, -0.2,0,0,1024,1024,1216,1024,192,-7.8,89,4.139,4.139,4.14,4.137,0,0,3.148,93.11,125.64944135674,0.328084,32,GPSNovice,
238100,2021-03-10 20:51:09,38.9262059305483,-76.6332904120086,0.656168,,,125.97752535674,0.984252,0,2.12439639344,15,5,16.524,125.97752535674,0.656168,0,2.12439639344,0,0,-0.671082,191.1, 0.5, -0.5,0,0,1024,1024,1240,1024,192,-7.8,89,4.139,4.139,4.14,4.137,0,0,3.148,93.11,125.97752535674,0.656168,32,GPSNovice,
238200,2021-03-10 20:51:09,38.9262059228698,-76.6332904269399,0.656168,,,125.97752535674,0.984252,0,2.1254265772,15,5,16.524,125.97752535674,0.656168,0,2.1254265772,0,0,-0.447388,191.2, 0.6, -0.5,0,0,1024,1024,1250,1024,192,-7.8,89,4.139,4.139,4.14,4.137,0,0,3.148,93.11,125.97752535674,0.656168,32,GPSNovice,
238300,2021-03-10 20:51:09,38.9262060270207,-76.6332907227854,0.984252,,,126.30560935674,0.984252,0,2.21203747236,14,5,16.524,126.30560935674,0.984252,0,2.21203747236,0,0,-0.447388,191.1, 0.9, -0.6,0,0,1024,1024,1268,1024,192,-7.8,89,4.139,4.139,4.14,4.137,0,0,3.148,93.11,126.30560935674,0.984252,32,GPSNovice,
238400,2021-03-10 20:51:09,38.9262060356304,-76.6332907224919,0.984252,,,126.30560935674,0.984252,0,2.214156895,14,5,16.524,126.30560935674,0.984252,0,2.214156895,0,0,-0.671082,191.1, 1, -0.7,0,0,1024,1024,1275,1024,192,-7.8,89,4.139,4.139,4.14,4.137,0,0,3.148,93.11,126.30560935674,0.984252,32,GPSNovice,
238500,2021-03-10 20:51:09,38.9262061313455,-76.6332910355875,1.312336,,,126.63369335674,1.312336,0,2.30263786896,14,5,16.524,126.63369335674,1.312336,0,2.30263786896,0,0,-0.671082,191, 1, -1,0,0,1024,1024,1309,1024,192,-7.8,89,4.139,4.139,4.14,4.137,0,0,3.148,93.11,126.63369335674,1.312336,32,GPSNovice,
238600,2021-03-10 20:51:09,38.9262061439463,-76.6332910334981,1.64042,,,126.96177735674,1.312336,0,2.3053478428,14,5,16.524,126.96177735674,1.64042,0,2.3053478428,0,0,-0.671082,190.9, 1.1, -1.1,0,0,1024,1024,1314,1024,191.9,-7.8,89,4.139,4.139,4.14,4.137,0,0,3.148,93.11,126.96177735674,1.64042,32,GPSNovice,
238700,2021-03-10 20:51:09,38.9262063542324,-76.6332913193801,1.64042,,,126.96177735674,1.312336,0,2.41701779388,14,5,16.524,126.96177735674,1.64042,0,2.41701779388,0,0,-0.671082,190.8, 0.9, -1,0,0,1024,1024,1331,1024,191.9,-7.8,89,4.139,4.139,4.14,4.137,0,0,3.148,93.11,126.96177735674,1.64042,32,GPSNovice,
238800,2021-03-10 20:51:09,38.9262063645278,-76.6332913031197,1.968504,,,127.28986135674,1.312336,0,2.41623039228,14,5,16.524,127.28986135674,1.968504,0,2.41701779388,0,0,-0.671082,190.8, 0.7, -1,0,0,1024,1024,1340,1024,191.9,-7.8,89,4.139,4.139,4.14,4.137,0,0,3.148,93.11,127.28986135674,1.968504,32,GPSNovice,
238900,2021-03-10 20:51:09,38.9262064668667,-76.6332914932265,1.968504,,,127.28986135674,1.312336,0,2.48112212664,14,5,16.524,127.28986135674,1.968504,0,2.48112212664,0,0,-0.671082,190.9, 0.8, -1,0,0,1024,1024,1360,1024,191.9,-7.8,89,4.139,4.139,4.14,4.137,0,0,3.148,93.11,127.28986135674,1.968504,32,GPSNovice,
239000,2021-03-10 20:51:09,38.9262064658825,-76.6332914865303,2.296588,,,127.61794535674,1.312336,0,2.47949154916,14,5,16.524,127.61794535674,2.296588,0,2.48112212664,0,0,-0.671082,190.9, 0.8, -1.1,0,0,1024,1024,1407,1024,191.9,-7.8,89,4.139,4.139,4.14,4.137,0,0,3.148,93.11,127.61794535674,2.296588,32,GPSNovice,
239100,2021-03-10 20:51:09,38.9262066701465,-76.6332916735419,2.296588,,,127.61794535674,1.312336,0,2.5692422082,15,5,16.524,127.61794535674,2.296588,0,2.5692422082,0,0,-0.894776,190.9, 0.7, -1.2,0,0,1024,1024,1430,1024,191.9,-7.8,89,4.139,4.139,4.14,4.137,0,0,3.148,93.11,127.61794535674,2.296588,32,GPSNovice,
239200,2021-03-10 20:51:10,38.9262066731809,-76.6332916597225,2.624672,,,127.94602935674,1.312336,0,2.56716215564,15,5,16.524,127.94602935674,2.624672,0,2.5692422082,0,0,-0.894776,190.9, 0.7, -1.2,0,0,1024,1024,1442,1024,191.8,-7.8,89,4.139,4.139,4.14,4.137,0,0,3.148,93.11,127.94602935674,2.624672,32,GPSNovice,
239300,2021-03-10 20:51:10,38.9262065661329,-76.6332916484126,2.952756,,,128.27411335674,1.312336,0,2.53803485812,14,5,16.524,128.27411335674,2.952756,0,2.5692422082,0,0,-0.894776,191, 0.6, -1.2,0,0,1024,1024,1442,1024,191.8,-7.8,89,4.139,4.139,4.14,4.137,0,0,3.148,93.11,128.27411335674,2.952756,32,GPSNovice,
239400,2021-03-10 20:51:10,38.92620656214,-76.6332916345106,2.952756,,,128.27411335674,1.312336,0,2.53415690524,14,5,16.524,128.27411335674,2.952756,0,2.5692422082,0,0,-0.894776,191, 0.8, -1.3,0,0,1024,1024,1457,1024,191.8,-7.8,89,4.139,4.139,4.14,4.137,0,0,3.148,93.11,128.27411335674,2.952756,32,GPSNovice,
239500,2021-03-10 20:51:10,38.9262063562627,-76.6332916120679,3.28084,,,128.60219735674,1.312336,0,2.47873695596,14,5,16.524,128.60219735674,3.28084,0,2.5692422082,0,0,-0.894776,190.9, 0.9, -1.1,0,0,1024,1024,1540,1024,191.8,-7.8,89,4.139,4.139,4.14,4.137,0,0,3.148,93.11,128.60219735674,3.28084,32,GPSNovice,
239600,2021-03-10 20:51:10,38.9262063565323,-76.6332915937393,3.28084,,,128.60219735674,1.64042,0,2.47493118156,14,5,16.524,128.60219735674,3.28084,0,2.5692422082,0,0,-0.894776,190.8, 0.9, -0.9,0,0,1024,1024,1584,1024,191.8,-7.8,89,4.139,4.139,4.14,4.137,0,0,3.148,93.11,128.60219735674,3.28084,32,GPSNovice,
239700,2021-03-10 20:51:10,38.9262062561287,-76.6332914920353,3.608924,,,128.93028135674,1.64042,0,2.42898301736,14,5,16.524,128.93028135674,3.608924,0,2.5692422082,0,0,-0.894776,190.8, 0.9, -0.9,0,0,1024,1024,1631,1024,191.8,-7.8,89,4.139,4.139,4.14,4.137,0,0,3.148,93.11,128.93028135674,3.608924,32,GPSNovice,
239800,2021-03-10 20:51:10,38.9262062662889,-76.6332914893291,3.937008,,,129.25836535674,1.64042,0,2.43088262372,14,5,16.524,129.25836535674,3.937008,0,2.5692422082,0,0,-1.11847,190.7, 0.8, -1,0,0,1024,1024,1655,1024,191.8,-7.8,89,4.139,4.139,4.14,4.137,0,0,3.148,93.11,129.25836535674,3.937008,32,GPSNovice,
239900,2021-03-10 20:51:10,38.926206276502,-76.6332913683253,4.265092,,,129.58644935674,1.64042,0,2.40792658624,14,5,16.524,129.58644935674,4.265092,0,2.5692422082,0,0,-1.342164,190.7, 0.6, -1,0,0,1024,1024,1655,1024,191.7,-7.8,89,4.139,4.139,4.14,4.137,0,0,3.148,93.11,129.58644935674,4.265092,32,GPSNovice,
240000,2021-03-10 20:51:10,38.9262062896085,-76.633291365769,4.265092,,,129.58644935674,1.64042,0,2.41062343672,14,5,16.204,129.58644935674,4.265092,0,2.5692422082,0,0,-1.565858,190.8, 0.6, -1,0,0,1024,1025,1656,1024,191.7,-7.8,89,4.069,4.071,4.072,4.057,0,0,10.798,93.11,129.58644935674,4.265092,32,GPSNovice,
240100,2021-03-10 20:51:10,38.9262061930175,-76.6332912672199,4.593176,,,129.91453335674,1.968504,0,2.36619430144,15,5,16.204,129.91453335674,4.593176,0,2.5692422082,0,0,-1.565858,190.9, 0.5, -1,0,0,1024,1024,1678,1024,191.7,-7.8,89,4.069,4.071,4.072,4.057,0,0,10.798,93.11,129.91453335674,4.593176,32,GPSNovice,
240200,2021-03-10 20:51:11,38.9262062015109,-76.6332912667863,4.92126,,,130.24261735674,1.968504,0,2.36819561384,15,5,16.204,130.24261735674,4.92126,0,2.5692422082,0,0,-1.789552,191, 0.5, -1,0,0,1024,1024,1684,1024,191.7,-7.8,89,4.069,4.071,4.072,4.057,0,0,10.798,93.11,130.24261735674,4.92126,32,GPSNovice,
240300,2021-03-10 20:51:11,38.9262063030719,-76.6332911565778,5.249344,,,130.57070135674,2.296588,0,2.3706201546,15,5,16.204,130.57070135674,5.249344,0,2.5692422082,0,0,-1.789552,191, 0.4, -1.1,0,0,1024,1024,1684,1024,191.7,-7.8,89,4.069,4.071,4.072,4.057,0,0,10.798,93.11,130.57070135674,5.249344,32,GPSNovice,
240400,2021-03-10 20:51:11,38.9262063075825,-76.6332911524682,5.577428,,,130.89878535674,2.296588,0,2.37091214936,15,5,16.204,130.89878535674,5.577428,0,2.5692422082,0,0,-1.789552,191.1, 0.4, -1.1,0,0,1024,1024,1684,1024,191.7,-7.8,89,4.069,4.071,4.072,4.057,0,0,10.798,93.11,130.89878535674,5.577428,32,GPSNovice,
240500,2021-03-10 20:51:11,38.9262062103138,-76.6332910537776,5.905512,,,131.22686935674,2.624672,0,2.32615493008,15,5,16.204,131.22686935674,5.905512,0,2.5692422082,0,0,-1.789552,191.1, 0.4, -1.1,0,0,1024,1024,1684,1024,191.7,-7.8,89,4.069,4.071,4.072,4.057,0,0,10.798,93.11,131.22686935674,5.905512,32,GPSNovice,
240600,2021-03-10 20:51:11,38.9262062040024,-76.6332910603547,6.233596,,,131.55495335674,2.624672,0,2.32592199044,15,5,16.204,131.55495335674,6.233596,0,2.5692422082,0,0,-1.565858,191.1, 0.4, -1.2,0,0,1024,1024,1684,1021,191.7,-7.8,89,4.069,4.071,4.072,4.057,0,0,10.798,93.11,131.55495335674,6.233596,32,GPSNovice,
240800,2021-03-10 20:51:11,38.9262061758299,-76.6332909387717,6.233596,,,131.55495335674,3.28084,0,2.29385834112,14,5,16.204,131.55495335674,6.233596,0,2.5692422082,0,0,-1.565858,191, 0.5, -1,0,0,1024,1024,1684,980,191.7,-7.8,89,4.069,4.071,4.072,4.057,0,0,10.798,93.11,131.55495335674,6.233596,32,GPSNovice,
240900,2021-03-10 20:51:11,38.9262061598627,-76.6332906470125,6.56168,,,131.88303735674,3.28084,0,2.23073497952,15,5,16.204,131.88303735674,6.56168,0,2.5692422082,0,0,-1.565858,190.9, 0.6, -1,0,0,1024,1024,1684,926,191.5,-7.8,89,4.069,4.071,4.072,4.057,0,0,10.798,93.11,131.88303735674,6.56168,32,GPSNovice,
241000,2021-03-10 20:51:11,38.9262061455287,-76.6332906507643,6.889764,,,132.21112135674,3.608924,0,2.22777566184,15,5,16.124,132.21112135674,6.889764,0,2.5692422082,0,0,-1.789552,190.7, 0.5, -0.9,0,0,1024,1024,1684,948,191.1,-7.8,89,4.049,4.05,4.051,4.042,0,0,11.972,93.11,132.21112135674,6.889764,32,GPSNovice,
241100,2021-03-10 20:51:12,38.9262061624959,-76.6332904088659,6.889764,,,132.21112135674,3.937008,0,2.18434062108,15,5,16.124,132.21112135674,6.889764,0,2.5692422082,0,0,-1.789552,190.3, 0.4, -0.8,0,0,1024,1024,1684,967,190.8,-7.8,89,4.049,4.05,4.051,4.042,0,0,11.972,93.11,132.21112135674,6.889764,32,GPSNovice,
241200,2021-03-10 20:51:12,38.9262061548304,-76.6332904005367,7.217848,,,132.53920535674,4.265092,0,2.18068576532,15,5,16.124,132.53920535674,7.217848,0,2.5692422082,0,0,-1.789552,190, 0.4, -0.7,0,0,1024,1024,1684,969,190.6,-7.8,89,4.049,4.05,4.051,4.042,0,0,11.972,93.11,132.53920535674,7.217848,32,GPSNovice,
241300,2021-03-10 20:51:12,38.9262062545786,-76.6332901991711,7.545932,,,132.86728935674,4.593176,0,2.16874350772,15,5,16.124,132.86728935674,7.545932,0,2.5692422082,0,0,-1.789552,189.7, 0.5, -0.6,0,0,1024,1024,1684,968,190.4,-7.8,89,4.049,4.05,4.051,4.042,0,0,11.972,93.11,132.86728935674,7.545932,32,GPSNovice,
241400,2021-03-10 20:51:12,38.9262062570002,-76.633290193089,8.2021,,,133.52345735674,4.593176,0,2.16825466256,15,5,16.124,133.52345735674,8.2021,0,2.5692422082,0,0,-2.013246,189.5, 0.5, -0.4,0,0,1024,1024,1684,925,190.2,-7.8,89,4.049,4.05,4.051,4.042,0,0,11.972,93.11,133.52345735674,8.2021,32,GPSNovice,
241500,2021-03-10 20:51:12,38.9262060624818,-76.6332898900749,8.530184,,,133.85154135674,4.92126,0,2.0581201446,15,5,16.124,133.85154135674,8.530184,0,2.5692422082,0,0,-2.013246,189.2, 0.5, -0.2,0,0,1024,1024,1684,944,189.7,-7.8,89,4.049,4.05,4.051,4.042,0,0,11.972,93.11,133.85154135674,8.530184,32,GPSNovice,
241600,2021-03-10 20:51:12,38.9262060610791,-76.6332898955535,8.858268,,,134.17962535674,5.249344,0,2.0587599084,15,5,16.124,134.17962535674,8.858268,0,2.5692422082,0,0,-2.013246,188.9, 0.5, -0.3,0,0,1024,1024,1684,946,189.4,-7.8,89,4.049,4.05,4.051,4.042,0,0,11.972,93.11,134.17962535674,8.858268,32,GPSNovice,
241700,2021-03-10 20:51:12,38.9262059520307,-76.6332897096341,9.186352,,,134.50770935674,5.577428,0,1.99409127116,14,5,16.124,134.50770935674,9.186352,0,2.5692422082,0,0,-2.013246,188.5, 0.5, -0.3,0,0,1024,1024,1684,947,188.7,-7.8,89,4.049,4.05,4.051,4.042,0,0,11.972,93.11,134.50770935674,9.186352,32,GPSNovice,
241800,2021-03-10 20:51:12,38.9262059493722,-76.6332897224796,9.514436,,,134.83579335674,5.905512,0,1.99574809536,14,5,16.124,134.83579335674,9.514436,0,2.5692422082,0,0,-2.013246,188.1, 0.5, -0.3,0,0,1024,1024,1684,948,188.7,-7.8,89,4.049,4.05,4.051,4.042,0,0,11.972,93.11,134.83579335674,9.514436,32,GPSNovice,
241900,2021-03-10 20:51:12,38.9262060622965,-76.6332896364588,9.84252,,,135.16387735674,6.233596,0,2.01134848956,14,5,16.124,135.16387735674,9.84252,0,2.5692422082,0,0,-2.013246,187.7, 0.3, -0.5,0,0,1024,1024,1684,947,188,-7.8,89,4.049,4.05,4.051,4.042,0,0,11.972,93.11,135.16387735674,9.84252,32,GPSNovice,
242000,2021-03-10 20:51:12,38.9262060807193,-76.6332896507438,10.170604,,,135.49196135674,6.56168,0,2.019110957,14,5,16.151,135.49196135674,10.170604,0,2.5692422082,0,0,-2.013246,187.2, 0.2, -0.5,0,0,1024,1024,1684,947,187.7,-7.8,89,4.049,4.05,4.051,4.042,0,0,11.972,93.11,135.49196135674,10.170604,32,GPSNovice,
242100,2021-03-10 20:51:12,38.9262058904106,-76.6332894606813,10.498688,,,135.82004535674,6.889764,0,1.93122709592,14,5,16.151,135.82004535674,10.498688,0,2.5692422082,0,0,-2.013246,186.8, 0.1, -0.6,0,0,1024,1024,1684,947,187.3,-7.8,89,4.049,4.05,4.051,4.042,0,0,11.972,93.11,135.82004535674,10.498688,32,GPSNovice,
242200,2021-03-10 20:51:13,38.9262058966001,-76.6332894667002,10.498688,,,135.82004535674,7.217848,0,1.93405518,14,5,16.151,135.82004535674,10.498688,0,2.5692422082,0,0,-2.013246,186.4, 0.2, -0.6,0,0,1024,1024,1684,947,187,-7.8,89,4.049,4.05,4.051,4.042,0,0,11.972,93.11,135.82004535674,10.498688,32,GPSNovice,
242300,2021-03-10 20:51:13,38.9262058705214,-76.6332894484505,10.826772,,,136.14812935674,7.545932,0,1.92342853924,15,5,16.151,136.14812935674,10.826772,0,2.5692422082,0,0,-2.013246,186, 0.3, -0.5,0,0,1024,1024,1684,950,186.6,-7.8,89,4.049,4.05,4.051,4.042,0,0,11.972,93.11,136.14812935674,10.826772,32,GPSNovice,
242400,2021-03-10 20:51:13,38.9262058653529,-76.633289440041,11.154856,,,136.47621335674,7.874016,0,1.92045281736,15,5,16.151,136.47621335674,11.154856,0,2.5692422082,0,0,-2.013246,185.7, 0.3, -0.4,0,0,1024,1024,1684,952,186.3,-7.8,89,4.049,4.05,4.051,4.042,0,0,11.972,93.11,136.47621335674,11.154856,32,GPSNovice,
242500,2021-03-10 20:51:13,38.9262058758326,-76.6332892567487,11.48294,,,136.80429735674,8.2021,0,1.89057748832,15,5,16.151,136.80429735674,11.48294,0,2.5692422082,0,0,-2.013246,185.4, 0.3, -0.4,0,0,1024,1024,1684,961,186,-7.8,89,4.049,4.05,4.051,4.042,0,0,11.972,93.11,136.80429735674,11.48294,32,GPSNovice,
242600,2021-03-10 20:51:13,38.9262058819805,-76.6332892662948,11.811024,,,137.13238135674,8.530184,0,1.89401908948,15,5,16.151,137.13238135674,11.811024,0,2.5692422082,0,0,-2.013246,185, 0.2, -0.4,0,0,1024,1024,1684,962,185.8,-7.8,89,4.049,4.05,4.051,4.042,0,0,11.972,93.11,137.13238135674,11.811024,32,GPSNovice,
242700,2021-03-10 20:51:13,38.9262059733422,-76.6332891609451,12.139108,,,137.46046535674,8.858268,0,1.90199153068,16,5,16.151,137.46046535674,12.139108,0,2.5692422082,0,0,-2.013246,184.8, 0.2, -0.4,0,0,1024,1024,1684,960,185.5,-7.8,89,4.049,4.05,4.051,4.042,0,0,11.972,93.11,137.46046535674,12.139108,32,GPSNovice,
242800,2021-03-10 20:51:13,38.9262059806802,-76.6332891604762,12.467192,,,137.78854935674,9.186352,0,1.90404533652,16,5,16.151,137.78854935674,12.467192,0,2.5692422082,0,0,-2.23694,184.5, 0.1, -0.4,0,0,1024,1024,1684,955,185.3,-7.8,89,4.049,4.05,4.051,4.042,0,0,11.972,93.11,137.78854935674,12.467192,32,GPSNovice,
242900,2021-03-10 20:51:13,38.9262059841442,-76.6332889633234,12.795276,,,138.11663335674,9.514436,0,1.8718176452,16,5,16.151,138.11663335674,12.795276,0,2.5692422082,0,0,-2.013246,184.3, 0, -0.4,0,0,1024,1024,1684,952,185,-7.8,89,4.049,4.05,4.051,4.042,0,0,11.972,93.11,138.11663335674,12.795276,32,GPSNovice,
243000,2021-03-10 20:51:13,38.9262059860923,-76.6332889618245,13.451444,,,138.77280135674,9.84252,0,1.8721457292,16,5,16.071,138.77280135674,13.451444,0,2.5692422082,0,0,-2.013246,184, 0, -0.4,0,0,1024,1024,1684,950,184.7,-7.8,89,4.043,4.045,4.047,4.034,0,0,12.342,93.11,138.77280135674,13.451444,32,GPSNovice,
243100,2021-03-10 20:51:13,38.9262060743505,-76.6332888696865,13.779528,,,139.10088535674,10.170604,0,1.88344494216,16,5,16.071,139.10088535674,13.779528,0,2.5692422082,0,0,-2.013246,183.7, 0.1, -0.4,0,0,1024,1024,1684,953,184.4,-7.8,89,4.043,4.045,4.047,4.034,0,0,12.342,93.11,139.10088535674,13.779528,32,GPSNovice,
243200,2021-03-10 20:51:14,38.9262060694353,-76.6332888668528,14.107612,,,139.42896935674,10.826772,0,1.88150924656,16,5,16.071,139.42896935674,14.107612,0,2.5692422082,0,0,-2.013246,183.5, 0.1, -0.4,0,0,1024,1024,1684,952,184.1,-7.8,89,4.043,4.045,4.047,4.034,0,0,12.342,93.11,139.42896935674,14.107612,32,GPSNovice,
243300,2021-03-10 20:51:14,38.9262062578976,-76.6332888606488,14.435696,,,139.75705335674,10.826772,0,1.93758864468,15,5,16.071,139.75705335674,14.435696,0,2.5692422082,0,0,-2.013246,183.2, 0, -0.3,0,0,1024,1024,1000,1024,183.8,-7.8,89,4.043,4.045,4.047,4.034,0,0,12.342,93.11,139.75705335674,14.435696,32,GPSNovice,
243400,2021-03-10 20:51:14,38.926206263049,-76.633288846826,14.76378,,,140.08513735674,11.48294,0,1.93701121684,15,5,16.071,140.08513735674,14.76378,0,2.5692422082,0,0,-2.23694,182.9, 0, -0.2,0,0,1024,1024,1025,1024,183.7,-7.8,89,4.043,4.045,4.047,4.034,0,0,12.342,93.11,140.08513735674,14.76378,32,GPSNovice,
243600,2021-03-10 20:51:14,38.9262062868537,-76.6332888586879,15.419948,,,140.74130535674,11.811024,0,1.94612210952,15,5,16.071,140.74130535674,15.419948,0,2.5692422082,0,0,-1.342164,182.8, 0, -0.2,0,0,1024,1024,1028,1024,183.7,-7.8,89,4.043,4.045,4.047,4.034,0,0,12.342,93.11,140.74130535674,15.419948,32,GPSNovice,
243700,2021-03-10 20:51:14,38.9262063477999,-76.63328886705,15.419948,,,140.74130535674,12.139108,0,1.96606633588,16,5,16.071,140.74130535674,15.419948,0,2.5692422082,0,0,-0.894776,182.8, 0.2, -0.2,0,0,1024,1024,1028,1024,183.7,-7.8,89,4.043,4.045,4.047,4.034,0,0,12.342,93.11,140.74130535674,15.419948,32,GPSNovice,
243800,2021-03-10 20:51:14,38.9262063324686,-76.6332888748768,15.748032,,,141.06938935674,12.139108,0,1.96257552212,16,5,16.071,141.06938935674,15.748032,0,2.5692422082,0,0,-0.671082,182.8, 0.2, -0.3,0,0,1024,1024,1028,1024,183.7,-7.8,89,4.043,4.045,4.047,4.034,0,0,12.342,93.11,141.06938935674,15.748032,32,GPSNovice,
243900,2021-03-10 20:51:14,38.926206342276,-76.6332888730351,15.748032,,,141.06938935674,12.467192,0,1.96529533848,16,5,16.071,141.06938935674,15.748032,0,2.5692422082,0,0,-0.447388,182.8, 0.2, -0.3,0,0,1024,1024,1028,1024,183.7,-7.8,89,4.043,4.045,4.047,4.034,0,0,12.342,93.11,141.06938935674,15.748032,32,GPSNovice,
244000,2021-03-10 20:51:14,38.9262063433946,-76.6332888728306,15.748032,,,141.06938935674,12.467192,0,1.96560701828,16,5,16.124,141.06938935674,15.748032,0,2.5692422082,0,0,-0.447388,182.9, 0.1, -0.4,0,0,1024,1024,1028,1024,183.7,-7.8,89,4.042,4.045,4.047,4.034,0,0,11.916,93.11,141.06938935674,15.748032,32,GPSNovice,
244100,2021-03-10 20:51:15,38.9262064392464,-76.6332887930891,16.076116,,,141.39747335674,12.467192,0,1.98303484036,15,5,16.124,141.39747335674,16.076116,0,2.5692422082,0,0,-0.447388,182.9, 0.1, -0.4,0,0,1024,1024,1028,1024,183.7,-7.8,89,4.042,4.045,4.047,4.034,0,0,11.916,93.11,141.39747335674,16.076116,32,GPSNovice,
244300,2021-03-10 20:51:15,38.9262065512049,-76.6332887997976,16.076116,,,141.39747335674,12.467192,0,2.0188484898,15,5,16.124,141.39747335674,16.076116,0,2.5692422082,0,0,-0.223694,183.1, 0, -0.5,0,0,1024,1024,1027,1024,183.7,-7.8,89,4.042,4.045,4.047,4.034,0,0,11.916,93.11,141.39747335674,16.076116,32,GPSNovice,
244400,2021-03-10 20:51:15,38.9262065652156,-76.6332888052917,16.076116,,,141.39747335674,12.467192,0,2.02402893616,15,5,16.124,141.39747335674,16.076116,0,2.5692422082,0,0,0,183.1, -0.1, -0.6,0,0,1024,1024,1028,1024,183.6,-7.8,89,4.042,4.045,4.047,4.034,0,0,11.916,93.11,141.39747335674,16.076116,32,GPSNovice,
244500,2021-03-10 20:51:15,38.9262066572897,-76.6332887049396,16.076116,,,141.39747335674,12.467192,0,2.03843182376,15,5,16.124,141.39747335674,16.076116,0,2.5692422082,0,0,0,183.2, -0.1, -0.6,0,0,1032,1024,1028,1024,183.6,-7.8,89,4.042,4.045,4.047,4.034,0,0,11.916,93.11,141.39747335674,16.076116,32,GPSNovice,
244600,2021-03-10 20:51:15,38.9262066612894,-76.6332887097481,16.076116,,,141.39747335674,12.467192,0,2.04037736188,15,5,16.124,141.39747335674,16.076116,0,2.5692422082,0,0,0,183.2, -0.1, -0.7,0,0,1115,1024,1029,1024,183.6,-7.8,89,4.042,4.045,4.047,4.034,0,0,11.916,93.11,141.39747335674,16.076116,32,GPSNovice,
244700,2021-03-10 20:51:15,38.9262066481843,-76.6332886043712,16.076116,,,141.39747335674,12.467192,0,2.02140098332,15,5,16.124,141.39747335674,16.076116,0,2.5692422082,0,0,0,183.1, -0.1, -0.5,0,0,1137,1024,1029,1024,183.6,-7.8,89,4.042,4.045,4.047,4.034,0,0,11.916,93.11,141.39747335674,16.076116,32,GPSNovice,
244800,2021-03-10 20:51:15,38.9262066456105,-76.6332886033459,16.076116,,,141.39747335674,12.467192,0,2.0204396972,15,5,16.124,141.39747335674,16.076116,0,2.5692422082,0,0,0,183, -0.9, -0.4,0,0,1141,1024,1028,1024,183.6,-7.8,89,4.042,4.045,4.047,4.034,0,0,11.916,93.11,141.39747335674,16.076116,32,GPSNovice,
245000,2021-03-10 20:51:15,38.9262064942682,-76.6332884125541,16.076116,,,141.39747335674,12.467192,0,1.94585964232,15,5,16.124,141.39747335674,16.076116,0,2.5692422082,0,0,0,182.9, -1.4, -0.3,0,0,1154,1024,1028,1024,183.6,-7.8,88,4.043,4.045,4.052,4.044,0,0,10.476,93.11,141.39747335674,16.076116,32,GPSNovice,
245100,2021-03-10 20:51:15,38.9262063560871,-76.6332883129363,16.076116,,,141.39747335674,12.467192,0.223694,1.8880578032,15,5,16.124,141.39747335674,16.076116,0.223694,2.5692422082,-0.223694,0,0,182.8, -1.5, -0.2,0,0,1178,1024,1028,1024,183.6,-7.8,88,4.043,4.045,4.052,4.044,0,0,10.476,93.11,141.39747335674,16.076116,32,GPSNovice,
245200,2021-03-10 20:51:16,38.9262062960448,-76.6332883214132,16.076116,,,141.39747335674,12.467192,0.223694,1.87005911496,15,5,16.124,141.39747335674,16.076116,0.223694,2.5692422082,-0.223694,0,0,182.8, -1.8, -0.2,0,0,1202,1024,1028,1024,183.6,-7.8,88,4.043,4.045,4.052,4.044,0,0,10.476,93.11,141.39747335674,16.076116,32,GPSNovice,
245300,2021-03-10 20:51:16,38.9262058890495,-76.6332881275804,16.076116,,,141.39747335674,12.467192,0.223694,1.71375333568,15,5,16.124,141.39747335674,16.076116,0.223694,2.5692422082,-0.223694,0,0,182.8, -2.2, -0.2,0,0,1227,1024,1028,1024,183.6,-7.8,88,4.043,4.045,4.052,4.044,0,0,10.476,93.11,141.39747335674,16.076116,32,GPSNovice,
245400,2021-03-10 20:51:16,38.9262056920394,-76.6332881451243,16.076116,,,141.39747335674,12.467192,0.447388,1.65446855688,15,5,16.124,141.39747335674,16.076116,0.447388,2.5692422082,-0.447388,0,0,182.8, -2.6, -0.2,0,0,1266,1025,1029,1024,183.6,-7.8,88,4.043,4.045,4.052,4.044,0,0,10.476,93.11,141.39747335674,16.076116,32,GPSNovice,
245500,2021-03-10 20:51:16,38.9262053293997,-76.6332881441919,16.076116,,,141.39747335674,12.467192,0.447388,1.54289375016,15,5,16.124,141.39747335674,16.076116,0.447388,2.5692422082,-0.447388,0,0,182.8, -3.1, -0.2,0,0,1317,1028,1028,1024,183.5,-7.8,88,4.043,4.045,4.052,4.044,0,0,10.476,93.11,141.39747335674,16.076116,32,GPSNovice,
245700,2021-03-10 20:51:16,38.9262047020422,-76.6332880681232,16.076116,,,141.39747335674,12.467192,0.894776,1.34540030552,14,5,16.124,141.39747335674,16.076116,0.894776,2.5692422082,-0.894776,0,0,182.9, -4.1, -0.3,0,0,1363,1028,1028,1024,183.5,-7.8,88,4.043,4.045,4.052,4.044,0,0,10.476,93.11,141.39747335674,16.076116,32,GPSNovice,
245800,2021-03-10 20:51:16,38.926204289082,-76.6332881080541,16.076116,,,141.39747335674,12.467192,0.894776,1.23900594516,14,5,16.124,141.39747335674,16.076116,0.894776,2.5692422082,-0.894776,0,0,182.9, -4.9, -0.3,0,0,1388,1026,1029,1024,183.5,-7.8,88,4.043,4.045,4.052,4.044,0,0,10.476,93.11,141.39747335674,16.076116,32,GPSNovice,
245900,2021-03-10 20:51:16,38.9262037252284,-76.6332881934897,16.076116,,,141.39747335674,12.467192,1.11847,1.11745738484,14,5,16.124,141.39747335674,16.076116,1.11847,2.5692422082,-1.11847,0,0,182.9, -5.8, -0.2,0,0,1390,1026,1028,1024,183.5,-7.8,88,4.043,4.045,4.052,4.044,0,0,10.476,93.11,141.39747335674,16.076116,32,GPSNovice,
246000,2021-03-10 20:51:16,38.9262031555971,-76.6332882490728,16.076116,,,141.39747335674,12.467192,1.342164,1.01532483564,14,5,16.124,141.39747335674,16.076116,1.342164,2.5692422082,-1.342164,0,0,182.9, -6.4, -0.2,0,0,1395,1027,1028,1024,183.5,-7.8,88,4.043,4.045,4.052,4.044,0,0,10.476,93.11,141.39747335674,16.076116,32,GPSNovice,
246100,2021-03-10 20:51:16,38.9262023813102,-76.6332884294514,16.076116,,,141.39747335674,12.467192,1.565858,0.96398625132,15,5,16.124,141.39747335674,16.076116,1.565858,2.5692422082,-1.565858,0,0,182.9, -6.5, -0.3,0,0,1388,1027,1029,1024,183.5,-7.8,88,4.043,4.045,4.052,4.044,0,0,10.476,93.11,141.39747335674,16.076116,32,GPSNovice,
246200,2021-03-10 20:51:17,38.9262016033747,-76.6332885179114,16.076116,,,141.39747335674,12.467192,2.013246,0.97035108092,15,5,16.124,141.39747335674,16.076116,2.013246,2.5692422082,-2.013246,0,0.223694,182.9, -6.6, -0.3,0,0,1371,1027,1028,1024,183.5,-7.8,88,4.043,4.045,4.052,4.044,0,0,10.476,93.11,141.39747335674,16.076116,32,GPSNovice,
246400,2021-03-10 20:51:17,38.9261995726741,-76.6332888119591,15.748032,,,141.06938935674,12.467192,2.460634,1.3327428248,14,5,16.124,141.39747335674,16.076116,2.460634,2.5692422082,-2.460634,-0.223694,0.223694,182.9, -6, -0.3,0,0,1375,1028,1028,1024,183.5,-7.8,88,4.043,4.045,4.052,4.044,0,0,10.476,93.11,141.06938935674,15.748032,32,GPSNovice,
246500,2021-03-10 20:51:17,38.9261984581394,-76.633288874472,15.419948,,,140.74130535674,12.467192,2.684328,1.62667656124,15,5,16.124,141.39747335674,16.076116,2.684328,2.5692422082,-2.684328,-0.223694,0.223694,182.8, -5.9, -0.3,0,0,1379,1029,1029,1024,183.5,-7.8,88,4.043,4.045,4.052,4.044,0,0,10.476,93.11,140.74130535674,15.419948,32,GPSNovice,
246600,2021-03-10 20:51:17,38.9261973332976,-76.633289016062,15.419948,,,140.74130535674,12.139108,2.684328,1.9770833966,15,5,16.124,141.39747335674,16.076116,2.684328,2.5692422082,-2.684328,-0.223694,0,182.7, -6, -0.4,0,0,1381,1028,1028,1024,183.5,-7.8,88,4.043,4.045,4.052,4.044,0,0,10.476,93.11,140.74130535674,15.419948,32,GPSNovice,
246700,2021-03-10 20:51:17,38.9261959321148,-76.633289229493,15.419948,,,140.74130535674,12.139108,2.908022,2.44581372656,15,5,16.124,141.39747335674,16.076116,2.908022,2.5692422082,-2.908022,-0.223694,0,182.5, -6.2, -0.6,0,0,1378,1034,1028,1024,183.5,-7.8,88,4.043,4.045,4.052,4.044,0,0,10.476,93.11,140.74130535674,15.419948,32,GPSNovice,
246800,2021-03-10 20:51:17,38.9261946478995,-76.6332893947893,15.419948,,,140.74130535674,12.139108,3.131716,2.88558408184,15,5,16.124,141.39747335674,16.076116,3.131716,2.88558408184,-3.131716,-0.223694,0,182.3, -6.3, -0.7,0,0,1380,1049,1028,1024,183.4,-7.8,88,4.043,4.045,4.052,4.044,0,0,10.476,93.11,140.74130535674,15.419948,32,GPSNovice,
246900,2021-03-10 20:51:17,38.9261930160688,-76.6332897820599,15.419948,,,140.74130535674,12.139108,3.35541,3.4751313448,14,5,16.124,141.39747335674,16.076116,3.35541,3.4751313448,-3.35541,-0.223694,0,182.2, -6.2, -0.7,0,0,1388,1062,1028,1024,183.4,-7.8,88,4.043,4.045,4.052,4.044,0,0,10.476,93.11,140.74130535674,15.419948,32,GPSNovice,
247000,2021-03-10 20:51:17,38.926191563808,-76.6332899853273,15.748032,,,141.06938935674,12.139108,3.579104,3.9896982904,14,5,16.097,141.39747335674,16.076116,3.579104,3.9896982904,-3.579104,-0.223694,0,182.2, -6.1, -0.5,0,0,1389,1069,1028,1024,183.4,-7.8,88,4.041,4.042,4.044,4.033,0,0,11.308,93.11,141.06938935674,15.748032,32,GPSNovice,
247100,2021-03-10 20:51:18,38.9261900869684,-76.6332900973976,15.748032,,,141.06938935674,12.139108,3.802798,4.5088256036,15,5,16.097,141.39747335674,16.076116,3.802798,4.5088256036,-3.802798,-0.223694,0,182.3, -6.2, -0.2,0,0,1386,1069,1028,1024,183.4,-7.8,88,4.041,4.042,4.044,4.033,0,0,11.308,93.11,141.06938935674,15.748032,32,GPSNovice,
247200,2021-03-10 20:51:18,38.9261885263158,-76.6332902884865,15.748032,,,141.06938935674,11.811024,3.802798,5.06807759,15,5,16.097,141.39747335674,16.076116,3.802798,5.06807759,-3.802798,-0.223694,0,182.4, -6.2, 0.1,0,0,1393,1069,1028,1024,183.3,-7.8,88,4.041,4.042,4.044,4.033,0,0,11.308,93.11,141.06938935674,15.748032,32,GPSNovice,
247300,2021-03-10 20:51:18,38.9261868527749,-76.6332906094148,15.748032,,,141.06938935674,11.811024,4.026492,5.6795605492,16,5,16.097,141.39747335674,16.076116,4.026492,5.6795605492,-4.026492,-0.223694,0,182.5, -6.2, 0.2,0,0,1399,1076,1028,1024,183.3,-7.8,88,4.041,4.042,4.044,4.033,0,0,11.308,93.11,141.06938935674,15.748032,32,GPSNovice,
247400,2021-03-10 20:51:18,38.926185151613,-76.6332908404307,15.748032,,,141.06938935674,11.811024,4.250186,6.295275792,16,5,16.097,141.39747335674,16.076116,4.250186,6.295275792,-4.250186,-0.223694,0,182.5, -6.3, 0.2,0,0,1404,1080,1028,1024,183.3,-7.8,88,4.041,4.042,4.044,4.033,0,0,11.308,93.11,141.06938935674,15.748032,32,GPSNovice,
247500,2021-03-10 20:51:18,38.9261830211896,-76.6332912825095,15.748032,,,141.06938935674,11.811024,4.2725554,7.0790356596,15,5,16.097,141.39747335674,16.076116,4.2725554,7.0790356596,-4.250186,-0.447388,0,182.6, -6.5, 0.4,0,0,1406,1086,1029,1024,183.3,-7.8,88,4.041,4.042,4.044,4.033,0,0,11.308,93.11,141.06938935674,15.748032,32,GPSNovice,
247600,2021-03-10 20:51:18,38.9261811751828,-76.6332915820421,15.748032,,,141.06938935674,11.48294,4.4962494,7.7530842376,15,5,16.097,141.39747335674,16.076116,4.4962494,7.7530842376,-4.47388,-0.447388,0,182.8, -6.7, 0.4,0,0,1409,1091,1028,1024,183.3,-7.8,88,4.041,4.042,4.044,4.033,0,0,11.308,93.11,141.06938935674,15.748032,32,GPSNovice,
247700,2021-03-10 20:51:18,38.9261788025961,-76.6332918158111,15.748032,,,141.06938935674,11.48294,4.7199434,8.6109582808,16,5,16.097,141.39747335674,16.076116,4.7199434,8.6109582808,-4.697574,-0.447388,0,182.9, -6.7, 0.6,0,0,1412,1099,1028,1024,183.3,-7.8,88,4.041,4.042,4.044,4.033,0,0,11.308,93.11,141.06938935674,15.748032,32,GPSNovice,
247800,2021-03-10 20:51:18,38.9261768661143,-76.6332921222144,15.748032,,,141.06938935674,11.48294,4.7199434,9.3194884872,16,5,16.097,141.39747335674,16.076116,4.7199434,9.3194884872,-4.697574,-0.447388,0,182.9, -6.8, 0.9,0,0,1415,1106,1028,1024,183.3,-7.8,88,4.041,4.042,4.044,4.033,0,0,11.308,93.11,141.06938935674,15.748032,32,GPSNovice,
247900,2021-03-10 20:51:18,38.9261745158582,-76.6332927096742,15.748032,,,141.06938935674,11.48294,4.9660068,10.1928480952,16,5,16.097,141.39747335674,16.076116,4.9660068,10.1928480952,-4.921268,-0.671082,0,182.9, -6.9, 1.1,0,0,1421,1108,1028,1024,183.3,-7.8,88,4.041,4.042,4.044,4.033,0,0,11.308,93.11,141.06938935674,15.748032,32,GPSNovice,
248000,2021-03-10 20:51:18,38.9261724511757,-76.6332930793987,15.748032,,,141.06938935674,11.48294,5.1897008,10.95144392,16,5,16.071,141.39747335674,16.076116,5.1897008,10.95144392,-5.144962,-0.671082,0,182.9, -7, 1.2,0,0,1428,1111,1028,1024,183.3,-7.8,88,4.032,4.034,4.036,4.024,0,0,11.858,93.11,141.06938935674,15.748032,32,GPSNovice,
248100,2021-03-10 20:51:19,38.9261696327216,-76.6332936589106,15.419948,,,140.74130535674,11.154856,5.4133948,11.9916670504,16,5,16.071,141.39747335674,16.076116,5.4133948,11.9916670504,-5.368656,-0.671082,0,183, -7.1, 1.4,0,0,1429,1112,1028,1024,183.3,-7.8,88,4.032,4.034,4.036,4.024,0,0,11.858,93.11,140.74130535674,15.419948,32,GPSNovice,
248200,2021-03-10 20:51:19,38.9261674339117,-76.6332941120988,15.419948,,,140.74130535674,11.154856,5.4357642,12.8033796748,16,5,16.071,141.39747335674,16.076116,5.4357642,12.8033796748,-5.368656,-0.894776,0,183, -7.1, 1.4,0,0,1429,1119,1027,1024,183.3,-7.8,88,4.032,4.034,4.036,4.024,0,0,11.858,93.11,140.74130535674,15.419948,32,GPSNovice,
248300,2021-03-10 20:51:19,38.9261647342068,-76.633294942999,15.419948,,,140.74130535674,11.154856,5.6594582,13.8156500484,16,5,16.071,141.39747335674,16.076116,5.6594582,13.8156500484,-5.59235,-0.894776,0,183, -7.2, 1.4,0,0,1429,1121,1028,1024,183.3,-7.8,88,4.032,4.034,4.036,4.024,0,0,11.858,93.11,140.74130535674,15.419948,32,GPSNovice,
248400,2021-03-10 20:51:19,38.9261623326578,-76.6332955243526,15.419948,,,140.74130535674,11.154856,5.6594582,14.7071527016,16,5,16.071,141.39747335674,16.076116,5.6594582,14.7071527016,-5.816044,-0.894776,0,183, -7.3, 1.4,0,0,1430,1126,1028,1024,183.3,-7.8,88,4.032,4.034,4.036,4.024,0,0,11.858,93.11,140.74130535674,15.419948,32,GPSNovice,
248500,2021-03-10 20:51:19,38.9261593432283,-76.6332962303177,15.419948,,,140.74130535674,11.154856,6.151585,15.8158469628,15,5,16.071,141.39747335674,16.076116,6.151585,15.8158469628,-6.039738,-1.11847,0,183, -7.3, 1.5,0,0,1433,1128,1028,1024,183.3,-7.8,88,4.032,4.034,4.036,4.024,0,0,11.858,93.11,140.74130535674,15.419948,32,GPSNovice,
248600,2021-03-10 20:51:19,38.9261567990153,-76.6332968798297,15.419948,,,140.74130535674,11.154856,6.151585,16.7622380692,15,5,16.071,141.39747335674,16.076116,6.151585,16.7622380692,-6.039738,-1.11847,0,183, -7.2, 1.7,0,0,1430,1129,1028,1024,183.3,-7.8,88,4.032,4.034,4.036,4.024,0,0,11.858,93.11,140.74130535674,15.419948,32,GPSNovice,
248700,2021-03-10 20:51:19,38.9261534418059,-76.633297634389,15.748032,,,141.06938935674,0,6.3529096,18.00524992,14,5,16.071,141.39747335674,16.076116,6.3529096,18.00524992,-6.263432,-1.11847,0,183, -7.2, 1.8,0,0,1432,1133,1029,1024,183.3,-7.8,88,4.032,4.034,4.036,4.024,0,0,11.858,93.11,141.06938935674,15.748032,32,GPSNovice,
248800,2021-03-10 20:51:19,38.92615074022,-76.6332983653889,15.748032,,,141.06938935674,0,6.6213424,19.0125006084,14,5,16.071,141.39747335674,16.076116,6.6213424,19.0125006084,-6.487126,-1.342164,0,183, -7.3, 1.8,0,0,1433,1137,1028,1024,183.3,-7.8,88,4.032,4.034,4.036,4.024,0,0,11.858,93.11,141.06938935674,15.748032,32,GPSNovice,
248900,2021-03-10 20:51:19,38.9261474440421,-76.633299430122,15.748032,,,141.06938935674,14.107612,6.8450364,20.2512145588,14,5,16.071,141.39747335674,16.076116,6.8450364,20.2512145588,-6.71082,-1.342164,0,183, -7.2, 1.8,0,0,1434,1139,1028,1024,183.3,-7.8,88,4.032,4.034,4.036,4.024,0,0,11.858,93.11,141.06938935674,15.748032,32,GPSNovice,
249000,2021-03-10 20:51:19,38.926144590466,-76.6333002601519,15.748032,,,141.06938935674,14.107612,7.1134692,21.3184390024,14,5,16.044,141.39747335674,16.076116,7.1134692,21.3184390024,-6.934514,-1.565858,0,182.9, -7.3, 1.9,0,0,1431,1143,1028,1024,183.3,-7.8,88,4.032,4.034,4.036,4.024,0,0,11.76,93.11,141.06938935674,15.748032,32,GPSNovice,
249100,2021-03-10 20:51:19,38.9261410605869,-76.6333013300074,15.748032,,,141.06938935674,14.107612,7.1134692,22.6411424568,14,5,16.044,141.39747335674,16.076116,7.1134692,22.6411424568,-6.934514,-1.565858,0,182.9, -7.2, 1.9,0,0,1431,1142,1028,1024,183.3,-7.8,88,4.032,4.034,4.036,4.024,0,0,11.76,93.11,141.06938935674,15.748032,32,GPSNovice,
249200,2021-03-10 20:51:20,38.926138164672,-76.6333022162027,16.076116,,,141.39747335674,14.107612,7.3371632,23.7268052212,14,5,16.044,141.39747335674,16.076116,7.3371632,23.7268052212,-7.158208,-1.565858,0,183, -7.2, 1.9,0,0,1431,1142,1027,1024,183.3,-7.8,88,4.032,4.034,4.036,4.024,0,0,11.76,93.11,141.39747335674,16.076116,32,GPSNovice,
249300,2021-03-10 20:51:20,38.9261342450266,-76.6333034078547,16.076116,,,141.39747335674,14.107612,7.605596,25.195866948,15,5,16.044,141.39747335674,16.076116,7.605596,25.195866948,-7.381902,-1.789552,0,183, -7.1, 2.2,0,0,1431,1142,1028,1024,183.3,-7.8,88,4.032,4.034,4.036,4.024,0,0,11.76,93.11,141.39747335674,16.076116,32,GPSNovice,
249400,2021-03-10 20:51:20,38.9261311932508,-76.6333043555006,16.076116,,,141.39747335674,14.107612,7.8069206,26.3408472996,15,5,16.044,141.39747335674,16.076116,7.8069206,26.3408472996,-7.605596,-1.789552,0,183, -7, 2.2,0,0,1431,1140,1029,1024,183.3,-7.8,88,4.032,4.034,4.036,4.024,0,0,11.76,93.11,141.39747335674,16.076116,32,GPSNovice,
249500,2021-03-10 20:51:20,38.9261271026072,-76.6333055497027,16.076116,,,141.39747335674,14.107612,8.0306146,27.8711623092,15,5,16.044,141.39747335674,16.076116,8.0306146,27.8711623092,-7.82929,-1.789552,0,183, -6.9, 2,0,0,1431,1140,1028,1024,183.3,-7.8,88,4.032,4.034,4.036,4.024,0,0,11.76,93.11,141.39747335674,16.076116,32,GPSNovice,
249600,2021-03-10 20:51:20,38.926123902601,-76.6333065641462,16.076116,,,141.39747335674,14.107612,8.2543086,29.0730652348,15,5,16.044,141.39747335674,16.076116,8.2543086,29.0730652348,-8.052984,-1.789552,0,183.1, -6.9, 2.1,0,0,1432,1140,1028,1024,183.3,-7.8,88,4.032,4.034,4.036,4.024,0,0,11.76,93.11,141.39747335674,16.076116,32,GPSNovice,
249700,2021-03-10 20:51:20,38.9261196870569,-76.6333079872494,16.076116,,,141.39747335674,14.107612,8.2990474,30.6617135796,15,5,16.044,141.39747335674,16.076116,8.2990474,30.6617135796,-8.052984,-2.013246,0,183.1, -6.8, 2.1,0,0,1437,1139,1028,1024,183.3,-7.8,88,4.032,4.034,4.036,4.024,0,0,11.76,93.11,141.39747335674,16.076116,32,GPSNovice,
249800,2021-03-10 20:51:20,38.9261162246569,-76.6333091126394,16.076116,,,141.39747335674,14.435696,8.5227414,31.9639774008,15,5,16.044,141.39747335674,16.076116,8.5227414,31.9639774008,-8.276678,-2.013246,0,183.3, -6.7, 2.2,0,0,1439,1150,1027,1024,183.3,-7.8,88,4.032,4.034,4.036,4.024,0,0,11.76,93.11,141.39747335674,16.076116,32,GPSNovice,
249900,2021-03-10 20:51:20,38.9261119078138,-76.6333105105481,16.076116,,,141.39747335674,14.435696,8.7464354,33.587271416,16,5,16.044,141.39747335674,16.076116,8.7464354,33.587271416,-8.500372,-2.013246,0,183.3, -6.9, 2.2,0,0,1440,1147,1028,1024,183.3,-7.8,88,4.032,4.034,4.036,4.024,0,0,11.76,93.11,141.39747335674,16.076116,32,GPSNovice,
250000,2021-03-10 20:51:20,38.926108302284,-76.6333116901586,16.076116,,,141.39747335674,14.435696,8.94776,34.94422684,16,5,16.097,141.39747335674,16.076116,8.94776,34.94422684,-8.724066,-2.013246,0,183.4, -6.9, 2.5,0,0,1449,1141,1028,1024,183.3,-7.8,88,4.031,4.033,4.034,4.022,0,0,11.76,93.11,141.39747335674,16.076116,32,GPSNovice,
250200,2021-03-10 20:51:21,38.9261000911821,-76.6333143500912,16.076116,,,141.39747335674,14.435696,9.2161928,38.032481532,16,5,16.097,141.39747335674,16.076116,9.2161928,38.032481532,-8.94776,-2.23694,0,183.4, -7.2, 2.5,0,0,1451,1144,1028,1024,183.3,-7.8,88,4.031,4.033,4.034,4.022,0,0,11.76,93.11,141.39747335674,16.076116,32,GPSNovice,
250300,2021-03-10 20:51:21,38.9260954496019,-76.6333158267851,16.076116,,,141.39747335674,14.435696,9.4398868,39.776576076,15,5,16.097,141.39747335674,16.076116,9.4398868,39.776576076,-9.171454,-2.23694,0.223694,183.2, -7.3, 2.5,0,0,1451,1141,1028,1024,183.3,-7.8,88,4.031,4.033,4.034,4.022,0,0,11.76,93.11,141.39747335674,16.076116,32,GPSNovice,
250400,2021-03-10 20:51:21,38.926091566071,-76.6333171200998,16.076116,,,141.39747335674,14.435696,9.6635808,41.239502632,15,5,16.097,141.39747335674,16.076116,9.6635808,41.239502632,-9.395148,-2.23694,0,183, -7.2, 2.3,0,0,1453,1141,1028,1024,183.3,-7.8,88,4.031,4.033,4.034,4.022,0,0,11.76,93.11,141.39747335674,16.076116,32,GPSNovice,
250500,2021-03-10 20:51:21,38.926086712631,-76.6333187043758,16.076116,,,141.39747335674,14.435696,9.7083196,43.06594626,16,5,16.097,141.39747335674,16.076116,9.7083196,43.06594626,-9.395148,-2.460634,0,183, -7.3, 2.3,0,0,1454,1139,1028,1024,183.3,-7.8,88,4.031,4.033,4.034,4.022,0,0,11.76,93.11,141.39747335674,16.076116,32,GPSNovice,
250600,2021-03-10 20:51:21,38.9260828191422,-76.633319985403,16.076116,,,141.39747335674,14.76378,9.9320136,44.531497488,16,5,16.097,141.39747335674,16.076116,9.9320136,44.531497488,-9.618842,-2.460634,0,183, -7.2, 2.5,0,0,1452,1139,1029,1024,183.3,-7.8,88,4.031,4.033,4.034,4.022,0,0,11.76,93.11,141.39747335674,16.076116,32,GPSNovice,
250700,2021-03-10 20:51:21,38.9260774988371,-76.6333216890523,16.076116,,,141.39747335674,14.76378,10.1557076,46.531825636,16,5,16.097,141.39747335674,16.076116,10.1557076,46.531825636,-9.842536,-2.460634,0,183.1, -7.2, 2.5,0,0,1454,1141,1028,1024,183.3,-7.8,88,4.031,4.033,4.034,4.022,0,0,11.76,93.11,141.39747335674,16.076116,32,GPSNovice,
250800,2021-03-10 20:51:21,38.9260734537309,-76.6333230209753,16.076116,,,141.39747335674,14.76378,10.3570322,48.054791564,16,5,16.097,141.39747335674,16.076116,10.3570322,48.054791564,-10.06623,-2.460634,0,183, -7.2, 2.6,0,0,1424,1119,1028,1024,183.3,-7.8,88,4.031,4.033,4.034,4.022,0,0,11.76,93.11,141.39747335674,16.076116,32,GPSNovice,
250900,2021-03-10 20:51:21,38.9260683708268,-76.6333253056041,16.076116,,,141.39747335674,14.76378,10.625465,50.007875616,16,5,16.097,141.39747335674,16.076116,10.625465,50.007875616,-10.289924,-2.684328,0,182.9, -7.2, 2.7,0,0,1223,1028,1028,1024,183.3,-7.8,88,4.031,4.033,4.034,4.022,0,0,11.76,93.11,141.39747335674,16.076116,32,GPSNovice,
251000,2021-03-10 20:51:21,38.9260641988578,-76.6333267373403,16.4042,,,141.72555735674,15.091864,10.625465,51.582350732,16,5,16.097,141.72555735674,16.4042,10.625465,51.582350732,-10.289924,-2.684328,0,182.8, -6, 1.1,0,0,1024,1024,1028,1024,183.3,-7.8,88,4.036,4.038,4.04,4.028,0,0,10.82,93.11,141.72555735674,16.4042,32,GPSNovice,
251100,2021-03-10 20:51:22,38.9260587250959,-76.6333287375957,16.4042,,,141.72555735674,15.091864,10.849159,53.65649778,16,5,16.097,141.72555735674,16.4042,10.849159,53.65649778,-10.513618,-2.684328,0,182.7, -2.5, -1.5,0,0,722,1024,1029,1024,183.3,-7.8,88,4.036,4.038,4.04,4.028,0,0,10.82,93.11,141.72555735674,16.4042,32,GPSNovice,
251200,2021-03-10 20:51:22,38.9260543398861,-76.633330289584,16.4042,,,141.72555735674,15.091864,10.625465,55.3149624,16,5,16.097,141.72555735674,16.4042,10.849159,55.3149624,-10.289924,-2.684328,0,182.5, 1.1, -2.4,0,0,587,1024,1028,1024,183.3,-7.8,88,4.036,4.038,4.04,4.028,0,0,10.82,93.11,141.72555735674,16.4042,32,GPSNovice,
251300,2021-03-10 20:51:22,38.9260493249898,-76.6333320516823,16.4042,,,141.72555735674,15.091864,10.4241404,57.210959836,16,5,16.097,141.72555735674,16.4042,10.849159,57.210959836,-10.06623,-2.684328,0,182.2, 6.3, -2.8,0,0,493,1024,1027,1024,183.3,-7.8,88,4.036,4.038,4.04,4.028,0,0,10.82,93.11,141.72555735674,16.4042,32,GPSNovice,
251400,2021-03-10 20:51:22,38.9260451300431,-76.6333334822377,16.4042,,,141.72555735674,15.419948,9.9320136,58.793965136,16,5,16.097,141.72555735674,16.4042,10.849159,58.793965136,-9.618842,-2.460634,0,182, 10.7, -3.2,0,0,494,1024,1029,1024,183.3,-7.8,88,4.036,4.038,4.04,4.028,0,0,10.82,93.11,141.72555735674,16.4042,32,GPSNovice,
251500,2021-03-10 20:51:22,38.9260401457244,-76.6333349513318,16.4042,,,141.72555735674,15.419948,9.4398868,60.65945076,15,5,16.097,141.72555735674,16.4042,10.849159,60.65945076,-9.171454,-2.23694,0.223694,182.2, 13.1, -3.1,0,0,478,1024,1028,1024,183.3,-7.8,88,4.036,4.038,4.04,4.028,0,0,10.82,93.11,141.72555735674,16.4042,32,GPSNovice,
251600,2021-03-10 20:51:22,38.9260364363014,-76.6333361860707,16.076116,,,141.39747335674,15.419948,8.7464354,62.057416684,15,5,16.097,141.72555735674,16.4042,10.849159,62.057416684,-8.500372,-2.013246,0.447388,182.6, 13.3, -2.6,0,0,490,1024,1028,1024,183.3,-7.8,88,4.036,4.038,4.04,4.028,0,0,10.82,93.11,141.39747335674,16.076116,32,GPSNovice,
251700,2021-03-10 20:51:22,38.9260326256275,-76.6333372494823,16.076116,,,141.39747335674,15.419948,8.0306146,63.479660824,15,5,16.097,141.72555735674,16.4042,10.849159,63.479660824,-7.82929,-1.789552,0.223694,182.9, 13.4, -1.9,0,0,496,1024,1028,1024,183.3,-7.8,88,4.036,4.038,4.04,4.028,0,0,10.82,93.11,141.39747335674,16.076116,32,GPSNovice,
251800,2021-03-10 20:51:22,38.926029469857,-76.6333382531138,16.076116,,,141.39747335674,0,7.381902,64.665684484,15,5,16.097,141.72555735674,16.4042,10.849159,64.665684484,-7.158208,-1.789552,0.223694,182.9, 12.6, -1.6,0,0,456,1024,1028,1024,183.3,-7.8,88,4.036,4.038,4.04,4.028,0,0,10.82,93.11,141.39747335674,16.076116,32,GPSNovice,
251900,2021-03-10 20:51:22,38.9260257908855,-76.6333393433765,16.076116,,,141.39747335674,12.795276,6.6660812,66.0433092,15,5,16.097,141.72555735674,16.4042,10.849159,66.0433092,-6.487126,-1.565858,0,182.6, 12.3, -1.7,0,0,450,1024,1028,1024,183.3,-7.8,88,4.036,4.038,4.04,4.028,0,0,10.82,93.11,141.39747335674,16.076116,32,GPSNovice,
252000,2021-03-10 20:51:22,38.926023228637,-76.6333401705959,16.076116,,,141.39747335674,13.12336,6.6660812,67.006891908,15,5,16.124,141.72555735674,16.4042,10.849159,67.006891908,-6.039738,-1.342164,0,182.4, 12.7, -1.8,0,0,443,1024,1028,1024,183.3,-7.8,88,4.036,4.039,4.041,4.03,0,0,10.606,93.11,141.39747335674,16.076116,32,GPSNovice,
252100,2021-03-10 20:51:22,38.9260197469363,-76.633341228853,16.076116,,,141.39747335674,13.451444,5.5252418,68.312338144,15,5,16.124,141.72555735674,16.4042,10.849159,68.312338144,-5.368656,-1.342164,0,182.3, 12.9, -1.8,0,0,420,1018,1028,1024,183.3,-7.8,88,4.036,4.039,4.041,4.03,0,0,10.606,93.11,141.39747335674,16.076116,32,GPSNovice,
252200,2021-03-10 20:51:23,38.9260176075465,-76.6333419364257,16.4042,,,141.72555735674,13.12336,5.0554844,69.118112448,15,5,16.124,141.72555735674,16.4042,10.849159,69.118112448,-4.921268,-1.11847,0,182.3, 13.1, -1.7,0,0,425,994,1029,1024,183.3,-7.8,88,4.036,4.039,4.041,4.03,0,0,10.606,93.11,141.72555735674,16.4042,32,GPSNovice,
252300,2021-03-10 20:51:23,38.9260143960344,-76.6333427569505,16.4042,,,141.72555735674,13.12336,4.6080964,70.312010124,15,5,16.124,141.72555735674,16.4042,10.849159,70.312010124,-4.47388,-1.11847,0,182.4, 13.2, -1.5,0,0,440,1003,1029,1024,183.3,-7.8,88,4.036,4.039,4.041,4.03,0,0,10.606,93.11,141.72555735674,16.4042,32,GPSNovice,
252400,2021-03-10 20:51:23,38.9260126610247,-76.6333433564044,16.4042,,,141.72555735674,13.12336,4.1159696,70.967193872,15,5,16.124,141.72555735674,16.4042,10.849159,70.967193872,-4.026492,-0.894776,0,182.5, 12.9, -1.4,0,0,879,1024,1028,1024,183.2,-7.8,88,4.036,4.039,4.041,4.03,0,0,10.606,93.11,141.72555735674,16.4042,32,GPSNovice,
252500,2021-03-10 20:51:23,38.9260097197564,-76.6333441186497,16.4042,,,141.72555735674,12.795276,3.467257,72.061025928,15,5,16.124,141.72555735674,16.4042,10.849159,72.061025928,-3.35541,-0.894776,0,182.5, 10.9, -1.4,0,0,1024,1024,1029,1024,183.2,-7.8,88,4.036,4.039,4.041,4.03,0,0,10.606,93.11,141.72555735674,16.4042,32,GPSNovice,
252700,2021-03-10 20:51:23,38.9260056885466,-76.6333453110974,16.4042,,,141.72555735674,12.795276,3.1988242,73.570212328,15,5,16.124,141.72555735674,16.4042,10.849159,73.570212328,-3.131716,-0.671082,0.223694,182.7, 0.9, -1.1,0,0,1024,1024,1028,1024,183.2,-7.8,88,4.036,4.039,4.041,4.03,0,0,10.606,93.11,141.72555735674,16.4042,32,GPSNovice,
252800,2021-03-10 20:51:23,38.9260041680082,-76.6333457827459,16.4042,,,141.72555735674,12.795276,3.1988242,74.141078488,15,5,16.124,141.72555735674,16.4042,10.849159,74.141078488,-3.131716,-0.671082,0,182.6, 0.6, -0.8,0,0,1024,1024,1028,1024,183.2,-7.8,88,4.036,4.039,4.041,4.03,0,0,10.606,93.11,141.72555735674,16.4042,32,GPSNovice,
252900,2021-03-10 20:51:23,38.9260015599876,-76.6333462889125,16.4042,,,141.72555735674,12.795276,3.1988242,75.10006802,15,5,16.124,141.72555735674,16.4042,10.849159,75.10006802,-3.131716,-0.671082,0,182.5, 2.3, -1,0,0,825,1014,1028,1024,183.2,-7.8,88,4.036,4.039,4.041,4.03,0,0,10.606,93.11,141.72555735674,16.4042,32,GPSNovice,
